{"0":{"address":"75 Huỳnh Thúc Kháng","album":["r1o9OfN_W.jpg","r1o9OfN_W1.jpg","r1o9OfN_W2.jpg","r1o9OfN_W3.jpg","r1o9OfN_W4.jpg","r1o9OfN_W5.jpg","r1o9OfN_W6.jpg"],"district":"Quận 1","image":"r1o9OfN_W.jpg","lat":10.7715768128026,"long":106.6993666828033,"name":"Canteen Kafé","octime":"   07:30 AM - 10:00 PM","rate":0,"type":"Café/Dessert","id":"r1o9OfN_W"},"1":{"address":"41 Nguyễn Huệ","album":["HJTq_fNub.jpg","HJTq_fNub1.jpg","HJTq_fNub2.jpg","HJTq_fNub3.jpg","HJTq_fNub4.jpg","HJTq_fNub5.jpg"],"district":"Quận 1","image":"HJTq_fNub.jpg","lat":10.772886,"long":106.704685,"name":"Lickie Ice Dream - Nguyễn Huệ","octime":"   09:00 AM - 10:00 PM","rate":7.3,"type":"Café/Dessert","id":"HJTq_fNub"},"2":{"address":"20 Ngô Văn Năm, P. Bến Nghé","album":["H1eTcufVuZ.jpg","H1eTcufVuZ1.jpg","H1eTcufVuZ2.jpg"],"district":"Quận 1","image":"H1eTcufVuZ.jpg","lat":10.781189,"long":106.706229,"name":"Forever Cafe","octime":"  06:30 AM - 11:00 PM","rate":6.8,"type":"Café/Dessert","id":"H1eTcufVuZ"},"3":{"address":"5B Nguyễn Đình Chiểu, P. Đa Kao","album":["H1Zp5OzEdW.jpg","H1Zp5OzEdW1.jpg","H1Zp5OzEdW2.jpg","H1Zp5OzEdW3.jpg","H1Zp5OzEdW4.jpg","H1Zp5OzEdW5.jpg","H1Zp5OzEdW6.jpg","H1Zp5OzEdW7.jpg","H1Zp5OzEdW8.jpg","H1Zp5OzEdW9.jpg","H1Zp5OzEdW10.jpg","H1Zp5OzEdW11.jpg","H1Zp5OzEdW12.jpg","H1Zp5OzEdW13.jpg","H1Zp5OzEdW14.jpg","H1Zp5OzEdW15.jpg"],"district":"Quận 1","image":"H1Zp5OzEdW.jpg","lat":10.789989,"long":106.701052,"name":"Panini & Leafy Green Cafe","octime":"  08:00 AM - 09:00 PM","rate":8.4,"type":"Café/Dessert, ","id":"H1Zp5OzEdW"},"4":{"address":"Lầu 2, 151 Đồng Khởi","album":["SyGT5dG4uZ.jpg","SyGT5dG4uZ1.jpg","SyGT5dG4uZ2.jpg","SyGT5dG4uZ3.jpg","SyGT5dG4uZ4.jpg","SyGT5dG4uZ5.jpg","SyGT5dG4uZ6.jpg","SyGT5dG4uZ7.jpg","SyGT5dG4uZ8.jpg","SyGT5dG4uZ9.jpg","SyGT5dG4uZ10.jpg","SyGT5dG4uZ11.jpg","SyGT5dG4uZ12.jpg","SyGT5dG4uZ13.jpg","SyGT5dG4uZ14.jpg","SyGT5dG4uZ15.jpg"],"district":"Quận 1","image":"SyGT5dG4uZ.jpg","lat":10.775867,"long":106.703279,"name":"The 1985 Cafe - Trà & Bánh - Đồng Khởi","octime":"   08:30 AM - 10:00 PM","rate":7.4,"type":"Café/Dessert","id":"SyGT5dG4uZ"},"5":{"address":"44 Ngô Đức Kế","album":["HytsOGVu-.jpg","HytsOGVu-1.jpg","HytsOGVu-2.jpg","HytsOGVu-3.jpg","HytsOGVu-4.jpg","HytsOGVu-5.jpg"],"district":"Quận 1","image":"HytsOGVu-.jpg","lat":10.772727,"long":106.7045689999999,"name":"Kem Que Eat Me - Ngô Đức Kế","octime":"   06:00 PM - 10:00 PM","rate":8,"type":"Café/Dessert","id":"HytsOGVu-"},"6":{"address":"2 Thạch Thị Thanh, P. Tân Định","album":["H1xFsuGNub.jpg","H1xFsuGNub1.jpg","H1xFsuGNub2.jpg","H1xFsuGNub3.jpg","H1xFsuGNub4.jpg"],"district":"Quận 1","image":"H1xFsuGNub.jpg","lat":10.7899299673546,"long":106.693725585938,"name":"Nhạc Xưa Coffee","octime":"  06:00 AM - 10:30 PM","rate":0,"type":"Café/Dessert","id":"H1xFsuGNub"},"7":{"address":"18 Nguyễn Thị Minh Khai, P. Đa Kao","album":["B1co_z4dZ.jpg","B1co_z4dZ1.jpg","B1co_z4dZ2.jpg","B1co_z4dZ3.jpg","B1co_z4dZ4.jpg","B1co_z4dZ5.jpg","B1co_z4dZ6.jpg","B1co_z4dZ7.jpg","B1co_z4dZ8.jpg","B1co_z4dZ9.jpg","B1co_z4dZ10.jpg"],"district":"Quận 1","image":"B1co_z4dZ.jpg","lat":10.785465,"long":106.700377,"name":"Great - Bánh Mì & Cafe - Nguyễn Thị Minh Khai","octime":"  07:00 AM - 09:00 PM","rate":7.5,"type":"Café/Dessert","id":"B1co_z4dZ"},"8":{"address":"Rooftop Tòa Nhà Samco (Lầu 9), 326 Võ Văn Kiệt","album":["BkxcjOM4_b.jpg","BkxcjOM4_b1.jpg","BkxcjOM4_b2.jpg","BkxcjOM4_b3.jpg","BkxcjOM4_b4.jpg","BkxcjOM4_b5.jpg","BkxcjOM4_b6.jpg","BkxcjOM4_b7.jpg","BkxcjOM4_b8.jpg","BkxcjOM4_b9.jpg","BkxcjOM4_b10.jpg","BkxcjOM4_b11.jpg","BkxcjOM4_b12.jpg","BkxcjOM4_b13.jpg","BkxcjOM4_b14.jpg","BkxcjOM4_b15.jpg"],"district":"Quận 1","image":"BkxcjOM4_b.jpg","lat":10.761301,"long":106.695813,"name":"Sam Cafeteria","octime":"   06:00 AM - 10:00 PM","rate":6.6,"type":"Café/Dessert","id":"BkxcjOM4_b"},"9":{"address":"20 Pasteur","album":["BJHn_M4ub.jpg","BJHn_M4ub1.jpg","BJHn_M4ub2.jpg"],"district":"Quận 1","image":"BJHn_M4ub.jpg","lat":10.770147,"long":106.702998,"name":"HD Phim Cafe","octime":"  08:00 AM - 11:00 PM","rate":0,"type":"Café/Dessert","id":"BJHn_M4ub"},"10":{"address":"36 Hoàng Sa, P. Tân Định","album":["S1I3dz4_W.jpg","S1I3dz4_W1.jpg","S1I3dz4_W2.jpg","S1I3dz4_W3.jpg","S1I3dz4_W4.jpg","S1I3dz4_W5.jpg","S1I3dz4_W6.jpg","S1I3dz4_W7.jpg","S1I3dz4_W8.jpg","S1I3dz4_W9.jpg","S1I3dz4_W10.jpg","S1I3dz4_W11.jpg","S1I3dz4_W12.jpg","S1I3dz4_W13.jpg","S1I3dz4_W14.jpg","S1I3dz4_W15.jpg"],"district":"Quận 1","image":"S1I3dz4_W.jpg","lat":10.7940402085533,"long":106.6859257221221,"name":"Cowboys In Saigon - Cafe & Ăn Vặt","octime":"  08:00 AM - 10:00 PM","rate":7.4,"type":"Café/Dessert","id":"S1I3dz4_W"},"11":{"address":"122 Hồ Tùng Mậu","album":["SJlI2_GEO-.jpg","SJlI2_GEO-1.jpg","SJlI2_GEO-2.jpg","SJlI2_GEO-3.jpg","SJlI2_GEO-4.jpg","SJlI2_GEO-5.jpg","SJlI2_GEO-6.jpg","SJlI2_GEO-7.jpg","SJlI2_GEO-8.jpg","SJlI2_GEO-9.jpg","SJlI2_GEO-10.jpg","SJlI2_GEO-11.jpg","SJlI2_GEO-12.jpg","SJlI2_GEO-13.jpg","SJlI2_GEO-14.jpg","SJlI2_GEO-15.jpg"],"district":"Quận 1","image":"SJlI2_GEO-.jpg","lat":10.773325,"long":106.703268,"name":"Little Something - Dessert & Ice Cream - Hồ Tùng Mậu","octime":"   10:00 AM - 10:30 PM","rate":7.2,"type":"Café/Dessert","id":"SJlI2_GEO-"},"12":{"address":"15A/44 Lê Thánh Tôn","album":["rkP3ufNdb.jpg","rkP3ufNdb1.jpg","rkP3ufNdb2.jpg","rkP3ufNdb3.jpg","rkP3ufNdb4.jpg","rkP3ufNdb5.jpg","rkP3ufNdb6.jpg","rkP3ufNdb7.jpg","rkP3ufNdb8.jpg","rkP3ufNdb9.jpg","rkP3ufNdb10.jpg","rkP3ufNdb11.jpg","rkP3ufNdb12.jpg","rkP3ufNdb13.jpg","rkP3ufNdb14.jpg","rkP3ufNdb15.jpg"],"district":"Quận 1","image":"rkP3ufNdb.jpg","lat":10.780986,"long":106.7058569999999,"name":"Samurai Cafe Saigon","octime":"  09:00 AM - 11:00 PM","rate":8.4,"type":"Café/Dessert","id":"rkP3ufNdb"},"13":{"address":"207B001 Bùi Viện","album":["HkypOfVOb.jpg","HkypOfVOb1.jpg","HkypOfVOb2.jpg","HkypOfVOb3.jpg","HkypOfVOb4.jpg","HkypOfVOb5.jpg","HkypOfVOb6.jpg","HkypOfVOb7.jpg","HkypOfVOb8.jpg","HkypOfVOb9.jpg","HkypOfVOb10.jpg"],"district":"Quận 1","image":"HkypOfVOb.jpg","lat":10.7653328839514,"long":106.6909388528099,"name":"Paris Ơi Cafe","octime":"  07:00 AM - 10:00 PM","rate":8.4,"type":"Café/Dessert","id":"HkypOfVOb"}}