{"0":{"address":"116 Nguyễn Du","album":["SyC8ZmVuZ.jpg","SyC8ZmVuZ1.jpg","SyC8ZmVuZ2.jpg","SyC8ZmVuZ3.jpg","SyC8ZmVuZ4.jpg","SyC8ZmVuZ5.jpg","SyC8ZmVuZ6.jpg","SyC8ZmVuZ7.jpg","SyC8ZmVuZ8.jpg","SyC8ZmVuZ9.jpg","SyC8ZmVuZ10.jpg","SyC8ZmVuZ11.jpg","SyC8ZmVuZ12.jpg","SyC8ZmVuZ13.jpg","SyC8ZmVuZ14.jpg","SyC8ZmVuZ15.jpg"],"district":"Quận 1","image":"SyC8ZmVuZ.jpg","lat":10.7729930732,"long":106.6933554410934,"name":"Sale 4 Share","octime":"  04:00 PM - 10:00 PM","rate":8.6,"type":"Shop/Cửa hàng","id":"SyC8ZmVuZ"},"1":{"address":"86I Võ Thị Sáu","album":["Skg0UZm4OW.jpg","Skg0UZm4OW1.jpg","Skg0UZm4OW2.jpg","Skg0UZm4OW3.jpg","Skg0UZm4OW4.jpg","Skg0UZm4OW5.jpg","Skg0UZm4OW6.jpg","Skg0UZm4OW7.jpg"],"district":"Quận 1","image":"Skg0UZm4OW.jpg","lat":10.7892106147729,"long":106.6923224928626,"name":"Sữa Bò Tươi Long Thành","octime":"   08:00 AM - 05:00 PM","rate":7,"type":"Shop/Cửa hàng","id":"Skg0UZm4OW"},"2":{"address":"64 Tôn Thất Đạm","album":["HkJvbX4OZ.jpg","HkJvbX4OZ1.jpg","HkJvbX4OZ2.jpg"],"district":"Quận 1","image":"HkJvbX4OZ.jpg","lat":10.77133,"long":106.7034129999999,"name":"Sạp Thịt Bò Chị Ngà - Chợ Tôn Thất Đạm","octime":"   04:00 AM - 07:00 PM","rate":8.4,"type":"Shop/Cửa hàng","id":"HkJvbX4OZ"},"3":{"address":"2 Đinh Tiên Hoàng","album":["rkgJP-m4uW.jpg","rkgJP-m4uW1.jpg","rkgJP-m4uW2.jpg","rkgJP-m4uW3.jpg","rkgJP-m4uW4.jpg","rkgJP-m4uW5.jpg","rkgJP-m4uW6.jpg","rkgJP-m4uW7.jpg","rkgJP-m4uW8.jpg","rkgJP-m4uW9.jpg","rkgJP-m4uW10.jpg","rkgJP-m4uW11.jpg","rkgJP-m4uW12.jpg","rkgJP-m4uW13.jpg","rkgJP-m4uW14.jpg","rkgJP-m4uW15.jpg"],"district":"Quận 1","image":"rkgJP-m4uW.jpg","lat":10.787136,"long":106.701119,"name":"Hello Weekend Market","octime":"  09:00 AM - 09:00 PM","rate":7.2,"type":"Shop/Cửa hàng","id":"rkgJP-m4uW"},"4":{"address":"257A Nguyễn Trãi, P. Nguyễn Cư Trinh","album":["SJZyDZX4uZ.jpg","SJZyDZX4uZ1.jpg","SJZyDZX4uZ2.jpg","SJZyDZX4uZ3.jpg","SJZyDZX4uZ4.jpg","SJZyDZX4uZ5.jpg","SJZyDZX4uZ6.jpg","SJZyDZX4uZ7.jpg","SJZyDZX4uZ8.jpg","SJZyDZX4uZ9.jpg","SJZyDZX4uZ10.jpg","SJZyDZX4uZ11.jpg","SJZyDZX4uZ12.jpg","SJZyDZX4uZ13.jpg","SJZyDZX4uZ14.jpg","SJZyDZX4uZ15.jpg"],"district":"Quận 1","image":"SJZyDZX4uZ.jpg","lat":10.764597,"long":106.687703,"name":"Circle K - 257A Nguyễn Trãi","octime":"Mở cửa 24/24  00:00 - 23:59","rate":7,"type":"Shop/Cửa hàng","id":"SJZyDZX4uZ"},"5":{"address":"112 Bùi Thị Xuân, P. Bến Thành","album":["rJ3DWQNuW.jpg","rJ3DWQNuW1.jpg","rJ3DWQNuW2.jpg","rJ3DWQNuW3.jpg","rJ3DWQNuW4.jpg","rJ3DWQNuW5.jpg","rJ3DWQNuW6.jpg","rJ3DWQNuW7.jpg","rJ3DWQNuW8.jpg","rJ3DWQNuW9.jpg","rJ3DWQNuW10.jpg","rJ3DWQNuW11.jpg","rJ3DWQNuW12.jpg","rJ3DWQNuW13.jpg","rJ3DWQNuW14.jpg","rJ3DWQNuW15.jpg"],"district":"Quận 1","image":"rJ3DWQNuW.jpg","lat":10.7706993,"long":106.6890247999999,"name":"Showroom NhaRuou - LIQhouse","octime":"    08:00 AM - 08:30 PM","rate":8.2,"type":"Shop/Cửa hàng","id":"rJ3DWQNuW"},"6":{"address":"440 Hai Bà Trưng","album":["B1CwbQ4_W.jpg"],"district":"Quận 1","image":"B1CwbQ4_W.jpg","lat":10.777605,"long":106.703871,"name":"Shop & Go - Hai Bà Trưng","octime":"  00:00 - 23:59","rate":0,"type":"Shop/Cửa hàng","id":"B1CwbQ4_W"},"7":{"address":"158/6 Nguyễn Công Trứ, P. Nguyễn Thái Bình","album":["ByeCv-7NuZ.jpg","ByeCv-7NuZ1.jpg","ByeCv-7NuZ2.jpg","ByeCv-7NuZ3.jpg","ByeCv-7NuZ4.jpg","ByeCv-7NuZ5.jpg","ByeCv-7NuZ6.jpg","ByeCv-7NuZ7.jpg","ByeCv-7NuZ8.jpg","ByeCv-7NuZ9.jpg","ByeCv-7NuZ10.jpg","ByeCv-7NuZ11.jpg","ByeCv-7NuZ12.jpg","ByeCv-7NuZ13.jpg","ByeCv-7NuZ14.jpg","ByeCv-7NuZ15.jpg"],"district":"Quận 1","image":"ByeCv-7NuZ.jpg","lat":10.7690485476823,"long":106.7010610923171,"name":"Grace - Cafe & Cơm Văn Phòng","octime":"  08:00 AM - 10:00 PM","rate":7.4,"type":"Nhà hàng, ","id":"ByeCv-7NuZ"},"8":{"address":"11C Nguyễn Thị Minh Khai, P. Bến Nghé","album":["Hyd_bQNub.jpg","Hyd_bQNub1.jpg","Hyd_bQNub2.jpg","Hyd_bQNub3.jpg","Hyd_bQNub4.jpg","Hyd_bQNub5.jpg","Hyd_bQNub6.jpg","Hyd_bQNub7.jpg","Hyd_bQNub8.jpg","Hyd_bQNub9.jpg","Hyd_bQNub10.jpg","Hyd_bQNub11.jpg","Hyd_bQNub12.jpg","Hyd_bQNub13.jpg","Hyd_bQNub14.jpg","Hyd_bQNub15.jpg"],"district":"Quận 1","image":"Hyd_bQNub.jpg","lat":10.786162,"long":106.70142,"name":"Family Mart - Nguyễn Thị Minh Khai","octime":"24/24  12:00 AM - 11:30 PM","rate":6.7,"type":"Shop/Cửa hàng","id":"Hyd_bQNub"},"9":{"address":"42 Bà Lê Chân","album":["HktuWmEuW.jpg","HktuWmEuW1.jpg"],"district":"Quận 1","image":"HktuWmEuW.jpg","lat":10.790895,"long":106.689516,"name":"Cửa Hàng Thịt Heo 42","octime":"   04:00 AM - 09:00 PM","rate":10,"type":"Shop/Cửa hàng","id":"HktuWmEuW"},"10":{"address":"58 Hàm Nghi","album":["HJQY-QEdb.jpg","HJQY-QEdb1.jpg","HJQY-QEdb2.jpg","HJQY-QEdb3.jpg","HJQY-QEdb4.jpg","HJQY-QEdb5.jpg","HJQY-QEdb6.jpg","HJQY-QEdb7.jpg","HJQY-QEdb8.jpg","HJQY-QEdb9.jpg","HJQY-QEdb10.jpg","HJQY-QEdb11.jpg","HJQY-QEdb12.jpg","HJQY-QEdb13.jpg","HJQY-QEdb14.jpg","HJQY-QEdb15.jpg"],"district":"Quận 1","image":"HJQY-QEdb.jpg","lat":10.770537,"long":106.703239,"name":"Phương Hà - Shop Thực Phẩm Nhập Khẩu","octime":"  08:00 AM - 10:00 PM","rate":7.2,"type":"Shop/Cửa hàng","id":"HJQY-QEdb"}}