{"0":{"address":"129 Nguyễn Cư Trinh, P. Nguyễn Cư Trinh","album":["r1nmNHE_b.jpg","r1nmNHE_b1.jpg","r1nmNHE_b2.jpg","r1nmNHE_b3.jpg","r1nmNHE_b4.jpg","r1nmNHE_b5.jpg","r1nmNHE_b6.jpg","r1nmNHE_b7.jpg","r1nmNHE_b8.jpg","r1nmNHE_b9.jpg","r1nmNHE_b10.jpg","r1nmNHE_b11.jpg","r1nmNHE_b12.jpg","r1nmNHE_b13.jpg","r1nmNHE_b14.jpg","r1nmNHE_b15.jpg"],"district":"Quận 1","image":"r1nmNHE_b.jpg","lat":10.763393,"long":106.689018,"name":"Sơn Đẹp Trai - Thắng Cố Tây Bắc","octime":"  03:00 PM - 11:00 PM","rate":6.9,"type":"Quán ăn, ","id":"r1nmNHE_b"},"1":{"address":"105\tHoàng Sa","album":["Byg3mNBNu-.jpg","Byg3mNBNu-1.jpg","Byg3mNBNu-2.jpg"],"district":"Quận 1","image":"Byg3mNBNu-.jpg","lat":10.7931786434196,"long":106.6972942650318,"name":"Quán A Tí - Bia Sệt","octime":"   04:00 PM - 11:00 PM","rate":0,"type":"Quán nhậu","id":"Byg3mNBNu-"},"2":{"address":"4 Thi Sách, P. Bến Nghé","album":["HyaX4rNd-.jpg","HyaX4rNd-1.jpg","HyaX4rNd-2.jpg","HyaX4rNd-3.jpg","HyaX4rNd-4.jpg","HyaX4rNd-5.jpg","HyaX4rNd-6.jpg","HyaX4rNd-7.jpg","HyaX4rNd-8.jpg","HyaX4rNd-9.jpg","HyaX4rNd-10.jpg","HyaX4rNd-11.jpg","HyaX4rNd-12.jpg","HyaX4rNd-13.jpg","HyaX4rNd-14.jpg","HyaX4rNd-15.jpg"],"district":"Quận 1","image":"HyaX4rNd-.jpg","lat":10.777404,"long":106.7056049999999,"name":"Bia Hơi - Thi Sách","octime":"  08:00 AM - 08:00 PM","rate":7.6,"type":"Quán nhậu","id":"HyaX4rNd-"},"3":{"address":"52 Nguyễn Công Trứ","album":["ryxp7ErEOZ.jpg","ryxp7ErEOZ1.jpg","ryxp7ErEOZ2.jpg","ryxp7ErEOZ3.jpg","ryxp7ErEOZ4.jpg","ryxp7ErEOZ5.jpg","ryxp7ErEOZ6.jpg","ryxp7ErEOZ7.jpg","ryxp7ErEOZ8.jpg","ryxp7ErEOZ9.jpg","ryxp7ErEOZ10.jpg","ryxp7ErEOZ11.jpg","ryxp7ErEOZ12.jpg","ryxp7ErEOZ13.jpg","ryxp7ErEOZ14.jpg","ryxp7ErEOZ15.jpg"],"district":"Quận 1","image":"ryxp7ErEOZ.jpg","lat":10.770001,"long":106.7034909999999,"name":"Hội Quán CK - Nguyễn Công Trứ","octime":"   09:00 AM - 09:00 PM","rate":7.2,"type":"Quán nhậu","id":"ryxp7ErEOZ"},"4":{"address":"26 Võ Văn Kiệt (Đại Lộ Đông Tây) P. Nguyễn Thái Bình","album":["HkuVVHNub.jpg","HkuVVHNub1.jpg","HkuVVHNub2.jpg","HkuVVHNub3.jpg","HkuVVHNub4.jpg","HkuVVHNub5.jpg","HkuVVHNub6.jpg","HkuVVHNub7.jpg","HkuVVHNub8.jpg","HkuVVHNub9.jpg","HkuVVHNub10.jpg","HkuVVHNub11.jpg","HkuVVHNub12.jpg","HkuVVHNub13.jpg","HkuVVHNub14.jpg","HkuVVHNub15.jpg"],"district":"Quận 1","image":"HkuVVHNub.jpg","lat":10.768366,"long":106.702629,"name":"Bò Nầm Nướng Kaka","octime":"   05:00 PM - 11:30 PM","rate":7.1,"type":"Quán ăn, ","id":"HkuVVHNub"},"5":{"address":"175 Hàm Nghi, P. Bến Thành","album":["BJtN4rEO-.jpg","BJtN4rEO-1.jpg","BJtN4rEO-2.jpg","BJtN4rEO-3.jpg","BJtN4rEO-4.jpg","BJtN4rEO-5.jpg","BJtN4rEO-6.jpg","BJtN4rEO-7.jpg","BJtN4rEO-8.jpg","BJtN4rEO-9.jpg","BJtN4rEO-10.jpg","BJtN4rEO-11.jpg","BJtN4rEO-12.jpg","BJtN4rEO-13.jpg","BJtN4rEO-14.jpg","BJtN4rEO-15.jpg"],"district":"Quận 1","image":"BJtN4rEO-.jpg","lat":10.77088,"long":106.699533,"name":"Quán Bến Thành - Gà Nướng","octime":"  06:30 PM - 12:00 AM","rate":7.9,"type":"Quán ăn, ","id":"BJtN4rEO-"},"6":{"address":"62 Lý Tự Trọng","album":["ByxF44BEOb.jpg","ByxF44BEOb1.jpg","ByxF44BEOb2.jpg","ByxF44BEOb3.jpg","ByxF44BEOb4.jpg","ByxF44BEOb5.jpg","ByxF44BEOb6.jpg","ByxF44BEOb7.jpg","ByxF44BEOb8.jpg","ByxF44BEOb9.jpg","ByxF44BEOb10.jpg","ByxF44BEOb11.jpg","ByxF44BEOb12.jpg","ByxF44BEOb13.jpg","ByxF44BEOb14.jpg","ByxF44BEOb15.jpg"],"district":"Quận 1","image":"ByxF44BEOb.jpg","lat":10.774701,"long":106.698039,"name":"Vỹ Dạ Quán - Nhậu Bình Dân","octime":"  10:00 AM - 11:00 PM","rate":7.5,"type":"Quán nhậu","id":"ByxF44BEOb"},"7":{"address":"23 Hoàng Sa, P. Đa Kao","album":["rJSrVHEdZ.jpg","rJSrVHEdZ1.jpg","rJSrVHEdZ2.jpg","rJSrVHEdZ3.jpg","rJSrVHEdZ4.jpg","rJSrVHEdZ5.jpg","rJSrVHEdZ6.jpg","rJSrVHEdZ7.jpg","rJSrVHEdZ8.jpg","rJSrVHEdZ9.jpg","rJSrVHEdZ10.jpg","rJSrVHEdZ11.jpg","rJSrVHEdZ12.jpg","rJSrVHEdZ13.jpg","rJSrVHEdZ14.jpg","rJSrVHEdZ15.jpg"],"district":"Quận 1","image":"rJSrVHEdZ.jpg","lat":10.791911,"long":106.704798,"name":"Quán Ăn 25 - Hải Sản Tươi Sống","octime":"   08:00 AM - 10:30 PM","rate":7,"type":"Quán ăn, ","id":"rJSrVHEdZ"},"8":{"address":"C/C Đại Đồng Tiên, 212/098 Nguyễn Trãi, P. Nguyễn Cư Trinh","album":["SJUS4rVdZ.jpg","SJUS4rVdZ1.jpg","SJUS4rVdZ2.jpg","SJUS4rVdZ3.jpg","SJUS4rVdZ4.jpg","SJUS4rVdZ5.jpg","SJUS4rVdZ6.jpg","SJUS4rVdZ7.jpg","SJUS4rVdZ8.jpg","SJUS4rVdZ9.jpg","SJUS4rVdZ10.jpg","SJUS4rVdZ11.jpg","SJUS4rVdZ12.jpg","SJUS4rVdZ13.jpg","SJUS4rVdZ14.jpg","SJUS4rVdZ15.jpg"],"district":"Quận 1","image":"SJUS4rVdZ.jpg","lat":10.765178,"long":106.684617,"name":"Lẩu 099 - Nguyễn Trãi","octime":"   05:00 PM - 10:00 PM","rate":6.9,"type":"Quán ăn, ","id":"SJUS4rVdZ"},"9":{"address":"2 Bis Lương Hữu Khánh","album":["SJeLBErVOb.jpg","SJeLBErVOb1.jpg","SJeLBErVOb2.jpg","SJeLBErVOb3.jpg","SJeLBErVOb4.jpg","SJeLBErVOb5.jpg","SJeLBErVOb6.jpg","SJeLBErVOb7.jpg","SJeLBErVOb8.jpg","SJeLBErVOb9.jpg","SJeLBErVOb10.jpg","SJeLBErVOb11.jpg","SJeLBErVOb12.jpg","SJeLBErVOb13.jpg","SJeLBErVOb14.jpg","SJeLBErVOb15.jpg"],"district":"Quận 1","image":"SJeLBErVOb.jpg","lat":10.769334,"long":106.687133,"name":"Quán Tú - Nhậu Bình Dân","octime":"  04:00 PM - 11:00 PM","rate":7,"type":"Quán ăn, ","id":"SJeLBErVOb"},"10":{"address":"105\tHoàng Sa","album":["BybI4rEOW.jpg","BybI4rEOW1.jpg","BybI4rEOW2.jpg"],"district":"Quận 1","image":"BybI4rEOW.jpg","lat":10.7931786434196,"long":106.6972942650318,"name":"Quán A Tí - Bia Sệt","octime":"   04:00 PM - 11:00 PM","rate":0,"type":"Quán nhậu","id":"BybI4rEOW"},"11":{"address":"129 Nguyễn Cư Trinh, P. Nguyễn Cư Trinh","album":["HymIVH4_Z.jpg","HymIVH4_Z1.jpg","HymIVH4_Z2.jpg","HymIVH4_Z3.jpg","HymIVH4_Z4.jpg","HymIVH4_Z5.jpg","HymIVH4_Z6.jpg","HymIVH4_Z7.jpg","HymIVH4_Z8.jpg","HymIVH4_Z9.jpg","HymIVH4_Z10.jpg","HymIVH4_Z11.jpg","HymIVH4_Z12.jpg","HymIVH4_Z13.jpg","HymIVH4_Z14.jpg","HymIVH4_Z15.jpg"],"district":"Quận 1","image":"HymIVH4_Z.jpg","lat":10.763393,"long":106.689018,"name":"Sơn Đẹp Trai - Thắng Cố Tây Bắc","octime":"  03:00 PM - 11:00 PM","rate":6.9,"type":"Quán ăn, ","id":"HymIVH4_Z"}}