{"0":{"address":"2C Quang Trung","album":["rJ18tNbdZ.jpg","rJ18tNbdZ1.jpg","rJ18tNbdZ2.jpg","rJ18tNbdZ3.jpg","rJ18tNbdZ4.jpg","rJ18tNbdZ5.jpg","rJ18tNbdZ6.jpg","rJ18tNbdZ7.jpg","rJ18tNbdZ8.jpg","rJ18tNbdZ9.jpg","rJ18tNbdZ10.jpg","rJ18tNbdZ11.jpg","rJ18tNbdZ12.jpg","rJ18tNbdZ13.jpg","rJ18tNbdZ14.jpg","rJ18tNbdZ15.jpg"],"district":"Quận Hoàn Kiếm","image":"rJ18tNbdZ.jpg","lat":21.0268113,"long":105.8501163,"name":"Hn Tropical Cafe - Quang Trung","octime":"  06:30 AM - 11:00 PM","rate":7.9,"type":"Café/Dessert","id":"rJ18tNbdZ"},"1":{"address":"55 - 57 Lý Thường Kiệt","album":["SJlUtNbuW.jpg","SJlUtNbuW1.jpg","SJlUtNbuW2.jpg","SJlUtNbuW3.jpg"],"district":"Quận Hoàn Kiếm","image":"SJlUtNbuW.jpg","lat":21.023871973277,"long":105.8486885949969,"name":"Panda Cafe - Lý Thường Kiệt","octime":"  08:00 AM - 11:00 PM","rate":8,"type":"Café/Dessert","id":"SJlUtNbuW"},"2":{"address":"8 Chợ Gạo","album":["rkCUtNbOW.jpg","rkCUtNbOW1.jpg","rkCUtNbOW2.jpg","rkCUtNbOW3.jpg","rkCUtNbOW4.jpg","rkCUtNbOW5.jpg","rkCUtNbOW6.jpg","rkCUtNbOW7.jpg","rkCUtNbOW8.jpg","rkCUtNbOW9.jpg","rkCUtNbOW10.jpg"],"district":"Quận Hoàn Kiếm","image":"rkCUtNbOW.jpg","lat":21.0368591287989,"long":105.8528852462768,"name":"Chè Bát & Trà Chanh - Chợ Gạo","octime":"  08:00 AM - 11:00 PM","rate":7.9,"type":"Café/Dessert","id":"rkCUtNbOW"},"3":{"address":"3 Mã Mây","album":["rypwYE-O-.jpg","rypwYE-O-1.jpg"],"district":"Quận Hoàn Kiếm","image":"rypwYE-O-.jpg","lat":21.0360467606434,"long":105.852925479412,"name":"Cafe Giải Khát - Mã Mây","octime":"  08:00 AM - 11:00 PM","rate":9,"type":"Café/Dessert","id":"rypwYE-O-"},"4":{"address":"26 Hàng Vôi","album":["SyjuY4ZOW.jpg","SyjuY4ZOW1.jpg","SyjuY4ZOW2.jpg","SyjuY4ZOW3.jpg","SyjuY4ZOW4.jpg","SyjuY4ZOW5.jpg","SyjuY4ZOW6.jpg","SyjuY4ZOW7.jpg","SyjuY4ZOW8.jpg","SyjuY4ZOW9.jpg","SyjuY4ZOW10.jpg","SyjuY4ZOW11.jpg","SyjuY4ZOW12.jpg","SyjuY4ZOW13.jpg","SyjuY4ZOW14.jpg","SyjuY4ZOW15.jpg"],"district":"Quận Hoàn Kiếm","image":"SyjuY4ZOW.jpg","lat":21.030668,"long":105.856162,"name":"Hoa 10 Giờ - Floral & Book Cafe - Hàng Vôi","octime":"   07:30 AM - 10:30 PM","rate":9,"type":"Café/Dessert, ","id":"SyjuY4ZOW"},"5":{"address":"2 Hàng Tre","album":["r1tKYEb_Z.jpg","r1tKYEb_Z1.jpg","r1tKYEb_Z2.jpg","r1tKYEb_Z3.jpg","r1tKYEb_Z4.jpg","r1tKYEb_Z5.jpg","r1tKYEb_Z6.jpg","r1tKYEb_Z7.jpg","r1tKYEb_Z8.jpg","r1tKYEb_Z9.jpg","r1tKYEb_Z10.jpg","r1tKYEb_Z11.jpg","r1tKYEb_Z12.jpg","r1tKYEb_Z13.jpg","r1tKYEb_Z14.jpg","r1tKYEb_Z15.jpg"],"district":"Quận Hoàn Kiếm","image":"r1tKYEb_Z.jpg","lat":21.0338070925225,"long":105.8547822386026,"name":"Cường Cafe - Hàng Tre","octime":"  07:00 AM - 10:00 PM","rate":7.5,"type":"Café/Dessert","id":"r1tKYEb_Z"},"6":{"address":"2E Quang Trung","album":["BJw5FE-ub.jpg","BJw5FE-ub1.jpg","BJw5FE-ub2.jpg","BJw5FE-ub3.jpg","BJw5FE-ub4.jpg","BJw5FE-ub5.jpg","BJw5FE-ub6.jpg"],"district":"Quận Hoàn Kiếm","image":"BJw5FE-ub.jpg","lat":21.02654,"long":105.850135,"name":"Van Yen Art Cafe - Quang Trung","octime":"  08:00 AM - 11:00 PM","rate":5,"type":"Café/Dessert","id":"BJw5FE-ub"},"7":{"address":"46 Nguyễn Hữu Huân","album":["r1LjKV-O-.jpg","r1LjKV-O-1.jpg","r1LjKV-O-2.jpg","r1LjKV-O-3.jpg","r1LjKV-O-4.jpg","r1LjKV-O-5.jpg","r1LjKV-O-6.jpg","r1LjKV-O-7.jpg","r1LjKV-O-8.jpg"],"district":"Quận Hoàn Kiếm","image":"r1LjKV-O-.jpg","lat":21.033845,"long":105.854358,"name":"Năng Cafe - 46 Nguyễn Hữu Huân","octime":"  07:00 AM - 10:30 PM","rate":7.8,"type":"Café/Dessert","id":"r1LjKV-O-"},"8":{"address":"51 Nguyễn Hữu Huân","album":["BkVnKNZdW.jpg","BkVnKNZdW1.jpg","BkVnKNZdW2.jpg"],"district":"Quận Hoàn Kiếm","image":"BkVnKNZdW.jpg","lat":21.03307,"long":105.854501,"name":"51 Cafe - Nguyễn Hữu Huân","octime":"  07:00 AM - 11:00 PM","rate":7.5,"type":"Café/Dessert","id":"BkVnKNZdW"}}