{
  "0": {
    "address": "12 Nhà Chung",
    "album": [
      "rybKL3zOW.jpg",
      "rybKL3zOW1.jpg",
      "rybKL3zOW2.jpg",
      "rybKL3zOW3.jpg",
      "rybKL3zOW4.jpg",
      "rybKL3zOW5.jpg",
      "rybKL3zOW6.jpg",
      "rybKL3zOW7.jpg",
      "rybKL3zOW8.jpg",
      "rybKL3zOW9.jpg",
      "rybKL3zOW10.jpg",
      "rybKL3zOW11.jpg",
      "rybKL3zOW12.jpg",
      "rybKL3zOW13.jpg",
      "rybKL3zOW14.jpg",
      "rybKL3zOW15.jpg"
    ],
    "district": "Quận Hoàn Kiếm",
    "image": "rybKL3zOW.jpg",
    "lat": 21.028519,
    "long": 105.84966,
    "name": "Cửa Hàng Tiện Lợi Shop & Go - Nhà Chung",
    "octime": "  00:00 - 23:59",
    "rate": 7,
    "type": "Shop/Cửa hàng",
    "id": "rybKL3zOW"
  },
  "1": {
    "address": "28 Hàng Hành",
    "album": [
      "rJxbK83GdZ.jpg"
    ],
    "district": "Quận Hoàn Kiếm",
    "image": "rJxbK83GdZ.jpg",
    "lat": 21.031464,
    "long": 105.85028,
    "name": "F Mart",
    "octime": "  09:00 AM - 10:00 PM",
    "rate": 0,
    "type": "Shop/Cửa hàng",
    "id": "rJxbK83GdZ"
  },
  "2": {
    "address": "56 Hàm Tử Quan",
    "album": [
      "Hy-bt83f_-.jpg"
    ],
    "district": "Quận Hoàn Kiếm",
    "image": "Hy-bt83f_-.jpg",
    "lat": 21.031995,
    "long": 105.858258,
    "name": "Vinmart+ - Hàm Tử Quan",
    "octime": "  07:30 AM - 10:00 PM",
    "rate": 0,
    "type": "Shop/Cửa hàng",
    "id": "Hy-bt83f_-"
  },
  "3": {
    "address": "112 Cầu Gỗ, P. Hàng Trống",
    "album": [
      "SyfFLhMuZ.jpg",
      "SyfFLhMuZ1.jpg",
      "SyfFLhMuZ2.jpg",
      "SyfFLhMuZ3.jpg",
      "SyfFLhMuZ4.jpg",
      "SyfFLhMuZ5.jpg",
      "SyfFLhMuZ6.jpg",
      "SyfFLhMuZ7.jpg",
      "SyfFLhMuZ8.jpg",
      "SyfFLhMuZ9.jpg",
      "SyfFLhMuZ10.jpg",
      "SyfFLhMuZ11.jpg",
      "SyfFLhMuZ12.jpg",
      "SyfFLhMuZ13.jpg",
      "SyfFLhMuZ14.jpg",
      "SyfFLhMuZ15.jpg"
    ],
    "district": "Quận Hoàn Kiếm",
    "image": "SyfFLhMuZ.jpg",
    "lat": 21.032223,
    "long": 105.8523903,
    "name": "Circle K - Cầu Gỗ",
    "octime": "  00:00 - 23:59",
    "rate": 6.9,
    "type": "Shop/Cửa hàng",
    "id": "SyfFLhMuZ"
  },
  "4": {
    "address": "91 Nguyễn Du",
    "album": [
      "rJlMYI3fd-.jpg"
    ],
    "district": "Quận Hoàn Kiếm",
    "image": "rJlMYI3fd-.jpg",
    "lat": 21.02056,
    "long": 105.841527,
    "name": "Sói Biển - Cửa Hàng Thực Phẩm Sạch",
    "octime": "  07:00 AM - 09:00 PM",
    "rate": 0,
    "type": "Shop/Cửa hàng",
    "id": "rJlMYI3fd-"
  },
  "5": {
    "address": "21 Mã Mây",
    "album": [
      "rJgq8nzd-.jpg"
    ],
    "district": "Quận Hoàn Kiếm",
    "image": "rJgq8nzd-.jpg",
    "lat": 21.0357297036744,
    "long": 105.8533339066343,
    "name": "Shop & Go - Mã Mây",
    "octime": "  08:00 AM - 10:00 PM",
    "rate": 0,
    "type": "Shop/Cửa hàng",
    "id": "rJgq8nzd-"
  },
  "6": {
    "address": "22 Ngõ Gạch",
    "album": [
      "SJgxcLnzOb.jpg"
    ],
    "district": "Quận Hoàn Kiếm",
    "image": "SJgxcLnzOb.jpg",
    "lat": 21.0363715832649,
    "long": 105.8498865365982,
    "name": "Ô Mai Thanh Giang - Ngõ Gạch",
    "octime": "  08:00 AM - 09:00 PM",
    "rate": 9,
    "type": "Shop/Cửa hàng",
    "id": "SJgxcLnzOb"
  },
  "7": {
    "address": "56 Hàng Bè",
    "album": [
      "rybxc83M_b.jpg",
      "rybxc83M_b1.jpg",
      "rybxc83M_b2.jpg",
      "rybxc83M_b3.jpg",
      "rybxc83M_b4.jpg",
      "rybxc83M_b5.jpg"
    ],
    "district": "Quận Hoàn Kiếm",
    "image": "rybxc83M_b.jpg",
    "lat": 21.032551906513,
    "long": 105.8537658214569,
    "name": "Hương Mai Cafe - Hàng Bè",
    "octime": "  08:00 AM - 10:00 PM",
    "rate": 0,
    "type": "Café/Dessert, ",
    "id": "rybxc83M_b"
  },
  "8": {
    "address": "3 Hàng Mắm",
    "album": [
      "HybqIhz_-.jpg",
      "HybqIhz_-1.jpg",
      "HybqIhz_-2.jpg",
      "HybqIhz_-3.jpg",
      "HybqIhz_-4.jpg",
      "HybqIhz_-5.jpg",
      "HybqIhz_-6.jpg",
      "HybqIhz_-7.jpg",
      "HybqIhz_-8.jpg",
      "HybqIhz_-9.jpg",
      "HybqIhz_-10.jpg",
      "HybqIhz_-11.jpg",
      "HybqIhz_-12.jpg",
      "HybqIhz_-13.jpg",
      "HybqIhz_-14.jpg",
      "HybqIhz_-15.jpg"
    ],
    "district": "Quận Hoàn Kiếm",
    "image": "HybqIhz_-.jpg",
    "lat": 21.033822,
    "long": 105.855141,
    "name": "Đại Lý Trà Cung Đình Huế",
    "octime": "  07:30 AM - 10:00 PM",
    "rate": 0,
    "type": "Shop/Cửa hàng",
    "id": "HybqIhz_-"
  },
  "9": {
    "address": "2 Thanh Yên",
    "album": [
      "H1sq82f_-.jpg"
    ],
    "district": "Quận Hoàn Kiếm",
    "image": "H1sq82f_-.jpg",
    "lat": 21.037257,
    "long": 105.853695,
    "name": "Đại Lý Chè Tân Cương Thái Nguyên",
    "octime": "  09:00 AM - 09:00 PM",
    "rate": 0,
    "type": "Shop/Cửa hàng",
    "id": "H1sq82f_-"
  },
  "10": {
    "address": "67 Hàng Giấy",
    "album": [
      "H1T5I2fuZ.jpg"
    ],
    "district": "Quận Hoàn Kiếm",
    "image": "H1T5I2fuZ.jpg",
    "lat": 21.03862,
    "long": 105.848447,
    "name": "Yến Sào Nha Trang",
    "octime": "  07:00 AM - 09:00 PM",
    "rate": 0,
    "type": "Shop/Cửa hàng",
    "id": "H1T5I2fuZ"
  },
  "11": {
    "address": "8 Hàng Đường",
    "album": [
      "BylT5I3GdW.jpg",
      "BylT5I3GdW1.jpg",
      "BylT5I3GdW2.jpg",
      "BylT5I3GdW3.jpg",
      "BylT5I3GdW4.jpg"
    ],
    "district": "Quận Hoàn Kiếm",
    "image": "BylT5I3GdW.jpg",
    "lat": 21.036642,
    "long": 105.849561,
    "name": "Bánh Mứt Gia Truyền Gia Lợi",
    "octime": "  09:00 AM - 09:30 PM",
    "rate": 7.8,
    "type": "Shop/Cửa hàng",
    "id": "BylT5I3GdW"
  },
  "12": {
    "address": "65 Hàng Giấy",
    "album": [
      "SkWp9I3fd-.jpg"
    ],
    "district": "Quận Hoàn Kiếm",
    "image": "SkWp9I3fd-.jpg",
    "lat": 21.038616,
    "long": 105.848461,
    "name": "Yến Sào & Vi Cá",
    "octime": "  07:30 AM - 05:00 PM",
    "rate": 0,
    "type": "Shop/Cửa hàng",
    "id": "SkWp9I3fd-"
  }
}