{
  "0": {
    "address": "42E Lý Thường Kiệt",
    "album": [
      "H1gCMtZd-.jpg",
      "H1gCMtZd-1.jpg",
      "H1gCMtZd-2.jpg",
      "H1gCMtZd-3.jpg",
      "H1gCMtZd-4.jpg",
      "H1gCMtZd-5.jpg",
      "H1gCMtZd-6.jpg",
      "H1gCMtZd-7.jpg",
      "H1gCMtZd-8.jpg",
      "H1gCMtZd-9.jpg",
      "H1gCMtZd-10.jpg",
      "H1gCMtZd-11.jpg",
      "H1gCMtZd-12.jpg",
      "H1gCMtZd-13.jpg",
      "H1gCMtZd-14.jpg",
      "H1gCMtZd-15.jpg"
    ],
    "district": "Quận Hoàn Kiếm",
    "image": "H1gCMtZd-.jpg",
    "lat": 21.023593,
    "long": 105.849813,
    "name": "Brohotdog - Hotdog & Drink",
    "octime": "  08:00 - 23:00",
    "rate": 6.6,
    "type": "Ăn vặt/vỉa hè",
    "id": "H1gCMtZd-"
  },
  "1": {
    "address": "322 Phúc Tân",
    "album": [
      "H1bAftZdb.jpg"
    ],
    "district": "Quận Hoàn Kiếm",
    "image": "H1bAftZdb.jpg",
    "lat": 21.033283,
    "long": 105.856921,
    "name": "Salon Oanh Oanh - Phúc Tân",
    "octime": "  08:00 AM - 09:00 PM",
    "rate": 0,
    "type": "Làm tóc/Gội đầu/Nối mi",
    "id": "H1bAftZdb"
  },
  "2": {
    "address": "282 Phúc Tân",
    "album": [
      "SyMCMYZuZ.jpg"
    ],
    "district": "Quận Hoàn Kiếm",
    "image": "SyMCMYZuZ.jpg",
    "lat": 21.033851,
    "long": 105.856305,
    "name": "Tu Hair - Phúc Tân",
    "octime": "  09:00 AM - 08:00 PM",
    "rate": 0,
    "type": "Làm tóc/Gội đầu/Nối mi",
    "id": "SyMCMYZuZ"
  },
  "3": {
    "address": "242 Phúc Tân",
    "album": [
      "ry7Rztb_Z.jpg"
    ],
    "district": "Quận Hoàn Kiếm",
    "image": "ry7Rztb_Z.jpg",
    "lat": 21.034438,
    "long": 105.856034,
    "name": "Tuyết Dương Hair Salon - Phúc Tân",
    "octime": "  08:00 AM - 09:00 PM",
    "rate": 0,
    "type": "Làm tóc/Gội đầu/Nối mi",
    "id": "ry7Rztb_Z"
  },
  "4": {
    "address": "Ngõ 18 Hai Bà Trưng",
    "album": [
      "HJj0fKZdb.jpg",
      "HJj0fKZdb1.jpg"
    ],
    "district": "Quận Hoàn Kiếm",
    "image": "HJj0fKZdb.jpg",
    "lat": 21.023988,
    "long": 105.853982,
    "name": "Xuân Giang Hair Salon - Hai Bà Trưng",
    "octime": "  09:00 AM - 09:00 PM",
    "rate": 0,
    "type": "Làm tóc/Gội đầu/Nối mi",
    "id": "HJj0fKZdb"
  },
  "5": {
    "address": "20 Ngô Văn Sở",
    "album": [
      "B1nRzKbd-.jpg"
    ],
    "district": "Quận Hoàn Kiếm",
    "image": "B1nRzKbd-.jpg",
    "lat": 21.021001,
    "long": 105.848551,
    "name": "Hoàng Minh Spa - Ngô Văn Sở",
    "octime": "  08:00 AM - 10:00 PM",
    "rate": 0,
    "type": "Spa/Massage, ",
    "id": "B1nRzKbd-"
  },
  "6": {
    "address": "272 Bạch Đằng",
    "album": [
      "HkpAMFZOW.jpg"
    ],
    "district": "Quận Hoàn Kiếm",
    "image": "HkpAMFZOW.jpg",
    "lat": 21.025951,
    "long": 105.86167,
    "name": "Sang Sài Gòn Hair Salon - Bạch Đằng",
    "octime": "  08:00 AM - 09:00 PM",
    "rate": 0,
    "type": "Làm tóc/Gội đầu/Nối mi",
    "id": "HkpAMFZOW"
  },
  "7": {
    "address": "717 Hồng Hà",
    "album": [
      "ByRAfK-dW.jpg"
    ],
    "district": "Quận Hoàn Kiếm",
    "image": "ByRAfK-dW.jpg",
    "lat": 21.029774,
    "long": 105.857681,
    "name": "Hương Ly Beauty - Hồng Hà",
    "octime": "  08:00 AM - 10:00 PM",
    "rate": 0,
    "type": "Làm tóc/Gội đầu/Nối mi",
    "id": "ByRAfK-dW"
  },
  "8": {
    "address": "705 Hồng Hà",
    "album": [
      "SJwy7KW_-.jpg"
    ],
    "district": "Quận Hoàn Kiếm",
    "image": "SJwy7KW_-.jpg",
    "lat": 21.031162,
    "long": 105.85702,
    "name": "Hải Hair Salon - Hồng Hà",
    "octime": "  08:00 AM - 10:00 PM",
    "rate": 0,
    "type": "Làm tóc/Gội đầu/Nối mi",
    "id": "SJwy7KW_-"
  },
  "9": {
    "address": "8 Ngô Quyền",
    "album": [
      "HkgvkQK-_Z.jpg"
    ],
    "district": "Quận Hoàn Kiếm",
    "image": "HkgvkQK-_Z.jpg",
    "lat": 21.028336552999,
    "long": 105.8562980219721,
    "name": "Elle Glamour Hair Salon - Ngô Quyền",
    "octime": "  09:00 AM - 08:00 PM",
    "rate": 0,
    "type": "Làm tóc/Gội đầu/Nối mi",
    "id": "HkgvkQK-_Z"
  },
  "10": {
    "address": "16 Hàng Muối",
    "album": [
      "SJ_kmFWdZ.jpg"
    ],
    "district": "Quận Hoàn Kiếm",
    "image": "SJ_kmFWdZ.jpg",
    "lat": 21.034592873449,
    "long": 105.854577049613,
    "name": "Hương Hải Beauty Salon",
    "octime": "  08:30 AM - 07:30 PM",
    "rate": 0,
    "type": "Làm tóc/Gội đầu/Nối mi",
    "id": "SJ_kmFWdZ"
  },
  "11": {
    "address": "32A Hàng Vôi",
    "album": [
      "rk5J7Y-uW.jpg"
    ],
    "district": "Quận Hoàn Kiếm",
    "image": "rk5J7Y-uW.jpg",
    "lat": 21.030302790855,
    "long": 105.8563905581832,
    "name": "Hằng Hairdresser's - Hàng Vôi",
    "octime": "  08:30 AM - 07:30 PM",
    "rate": 0,
    "type": "Làm tóc/Gội đầu/Nối mi",
    "id": "rk5J7Y-uW"
  },
  "12": {
    "address": "149A Phố Huế ",
    "album": [
      "rJMlmYW_W.jpg",
      "rJMlmYW_W1.jpg",
      "rJMlmYW_W2.jpg",
      "rJMlmYW_W3.jpg",
      "rJMlmYW_W4.jpg",
      "rJMlmYW_W5.jpg",
      "rJMlmYW_W6.jpg",
      "rJMlmYW_W7.jpg",
      "rJMlmYW_W8.jpg",
      "rJMlmYW_W9.jpg",
      "rJMlmYW_W10.jpg",
      "rJMlmYW_W11.jpg",
      "rJMlmYW_W12.jpg",
      "rJMlmYW_W13.jpg",
      "rJMlmYW_W14.jpg",
      "rJMlmYW_W15.jpg"
    ],
    "district": "Quận Hoàn Kiếm",
    "image": "rJMlmYW_W.jpg",
    "lat": 21.0149705805477,
    "long": 105.8517587184906,
    "name": "Huy Việt Hair Salon - Phố Huế",
    "octime": "  08:00 AM - 08:00 PM",
    "rate": 8.2,
    "type": "Làm tóc/Gội đầu/Nối mi",
    "id": "rJMlmYW_W"
  },
  "13": {
    "address": "214 Trần Quang Khải",
    "album": [
      "HyezgXF-OZ.jpg"
    ],
    "district": "Quận Hoàn Kiếm",
    "image": "HyezgXF-OZ.jpg",
    "lat": 21.0262144390769,
    "long": 105.8589772135019,
    "name": "Hà Linh Hair Salon - Trần Quang Khải",
    "octime": "  08:00 AM - 07:30 PM",
    "rate": 0,
    "type": "Làm tóc/Gội đầu/Nối mi",
    "id": "HyezgXF-OZ"
  }
}