{"0":{"address":"16 Trần Bình Trọng","album":["rJhp_F-_b.jpg"],"district":"Quận Hoàn Kiếm","image":"rJhp_F-_b.jpg","lat":21.0199527594785,"long":105.8443320170044,"name":"Moon Nail - Trần Bình Trọng","octime":"  08:00 AM - 09:00 PM","rate":0,"type":"Tiệm nail","id":"rJhp_F-_b"},"1":{"address":"483 Bạch Đằng","album":["ryRadFb_-.jpg"],"district":"Quận Hoàn Kiếm","image":"ryRadFb_-.jpg","lat":21.024178,"long":105.862359,"name":"Trang Beauty Salon - Bạch Đằng","octime":"  08:00 AM - 09:00 PM","rate":0,"type":"Tiệm nail","id":"ryRadFb_-"},"2":{"address":"65 Nam Ngư, P. Cửa Nam","album":["ryxCpOKZ_b.jpg"],"district":"Quận Hoàn Kiếm","image":"ryxCpOKZ_b.jpg","lat":21.026487,"long":105.842313,"name":"Hana Nail","octime":"  09:00 AM - 09:00 PM","rate":0,"type":"Tiệm nail","id":"ryxCpOKZ_b"},"3":{"address":"42E Lý Thường Kiệt","album":["r1-0pOKWdZ.jpg","r1-0pOKWdZ1.jpg","r1-0pOKWdZ2.jpg","r1-0pOKWdZ3.jpg","r1-0pOKWdZ4.jpg","r1-0pOKWdZ5.jpg","r1-0pOKWdZ6.jpg","r1-0pOKWdZ7.jpg","r1-0pOKWdZ8.jpg","r1-0pOKWdZ9.jpg","r1-0pOKWdZ10.jpg","r1-0pOKWdZ11.jpg","r1-0pOKWdZ12.jpg","r1-0pOKWdZ13.jpg","r1-0pOKWdZ14.jpg","r1-0pOKWdZ15.jpg"],"district":"Quận Hoàn Kiếm","image":"r1-0pOKWdZ.jpg","lat":21.023593,"long":105.849813,"name":"Brohotdog - Hotdog & Drink","octime":"  08:00 - 23:00","rate":6.6,"type":"Ăn vặt/vỉa hè","id":"r1-0pOKWdZ"},"4":{"address":"12 Ngõ 51 Phan Chu Trinh","album":["BJM0pOt-_Z.jpg"],"district":"Quận Hoàn Kiếm","image":"BJM0pOt-_Z.jpg","lat":21.019281,"long":105.856116,"name":"Miu Miu - Nail & Nối Mi","octime":"  09:00 AM - 09:00 PM","rate":0,"type":"Tiệm nail","id":"BJM0pOt-_Z"},"5":{"address":"63 Bát Sứ","album":["rk_AuFZOb.jpg"],"district":"Quận Hoàn Kiếm","image":"rk_AuFZOb.jpg","lat":21.033785,"long":105.847289,"name":"Thỏ Nails","octime":"  08:00 AM - 09:00 PM","rate":0,"type":"Tiệm nail","id":"rk_AuFZOb"},"6":{"address":"46 Nguyên Khiết","album":["Skh0Ot-uW.jpg"],"district":"Quận Hoàn Kiếm","image":"Skh0Ot-uW.jpg","lat":21.035123,"long":105.856518,"name":"Hạnh Cún Nail","octime":"  08:00 AM - 09:00 PM","rate":0,"type":"Tiệm nail","id":"Skh0Ot-uW"},"7":{"address":"24B Trần Hưng Đạo","album":["rkghCdKZ_-.jpg"],"district":"Quận Hoàn Kiếm","image":"rkghCdKZ_-.jpg","lat":21.0198585568728,"long":105.8563634008169,"name":"Happy Nail","octime":"  07:30 AM - 09:30 PM","rate":0,"type":"Tiệm nail","id":"rkghCdKZ_-"},"8":{"address":"302 Phúc Tân","album":["r1-30uFbOW.jpg"],"district":"Quận Hoàn Kiếm","image":"r1-30uFbOW.jpg","lat":21.033523,"long":105.856575,"name":"Bee Nail","octime":"  08:00 AM - 09:00 PM","rate":0,"type":"Tiệm nail","id":"r1-30uFbOW"},"9":{"address":"24 Trần Hưng Đạo","album":["H1EkKYWdW.jpg"],"district":"Quận Hoàn Kiếm","image":"H1EkKYWdW.jpg","lat":21.0197386910127,"long":105.8567161113023,"name":"Bảo Vy Nail","octime":"  08:00 AM - 09:00 PM","rate":0,"type":"Tiệm nail","id":"H1EkKYWdW"},"10":{"address":"18 Thợ Nhuộm","album":["BkPkKKZub.jpg"],"district":"Quận Hoàn Kiếm","image":"BkPkKKZub.jpg","lat":21.0269239000796,"long":105.8446726575493,"name":"Mỹ Hương Nail","octime":"  08:00 AM - 08:00 PM","rate":0,"type":"Tiệm nail","id":"BkPkKKZub"},"11":{"address":"1 Nguyễn Văn Tố","album":["B1ukKYbub.jpg"],"district":"Quận Hoàn Kiếm","image":"B1ukKYbub.jpg","lat":21.0315996236532,"long":105.8459081500768,"name":"Hường Nail Nghệ Thuật","octime":"  08:00 AM - 08:00 PM","rate":0,"type":"Tiệm nail","id":"B1ukKYbub"},"12":{"address":"89A Lý Nam Đế","album":["SkFJKK-Ob.jpg"],"district":"Quận Hoàn Kiếm","image":"SkFJKK-Ob.jpg","lat":21.0324026278796,"long":105.8445033431053,"name":"Trà My Nail - Lý Nam Đế","octime":"  07:00 AM - 09:30 PM","rate":0,"type":"Tiệm nail","id":"SkFJKK-Ob"},"13":{"address":"38 Hàng Bông","album":["HykxKKZ_W.jpg"],"district":"Quận Hoàn Kiếm","image":"HykxKKZ_W.jpg","lat":21.0308904978506,"long":105.8481568470597,"name":"Tiny Nail","octime":"  07:30 AM - 09:30 PM","rate":0,"type":"Tiệm nail","id":"HykxKKZ_W"}}