{"0":{"address":"35 Hàng Vôi","album":["Sk7b0QZub.jpg","Sk7b0QZub1.jpg","Sk7b0QZub2.jpg","Sk7b0QZub3.jpg","Sk7b0QZub4.jpg"],"district":"Quận Hoàn Kiếm","image":"Sk7b0QZub.jpg","lat":21.029777,"long":105.857021,"name":"Vela - Cafe & Cơm Văn Phòng","octime":"  07:30 AM - 10:00 PM","rate":7,"type":"Nhà hàng","id":"Sk7b0QZub"},"1":{"address":"32 Hàng Tre","album":["r14-0X-ub.jpg","r14-0X-ub1.jpg"],"district":"Quận Hoàn Kiếm","image":"r14-0X-ub.jpg","lat":21.032132,"long":105.855521,"name":"Little India - Hàng Tre","octime":" Chiều  06:00 PM - 10:30 PM","rate":7.3,"type":"Nhà hàng","id":"r14-0X-ub"},"2":{"address":"28 Phan Chu Trinh","album":["HJgVWAQ-OZ.jpg"],"district":"Quận Hoàn Kiếm","image":"HJgVWAQ-OZ.jpg","lat":21.018999,"long":105.855132,"name":"Hải Sản Kim Anh - Phan Chu Trinh","octime":"  09:00 AM - 10:00 PM","rate":7,"type":"Nhà hàng","id":"HJgVWAQ-OZ"},"3":{"address":"7 Hàng Tre","album":["BJWNWC7ZO-.jpg","BJWNWC7ZO-1.jpg","BJWNWC7ZO-2.jpg","BJWNWC7ZO-3.jpg","BJWNWC7ZO-4.jpg","BJWNWC7ZO-5.jpg","BJWNWC7ZO-6.jpg","BJWNWC7ZO-7.jpg","BJWNWC7ZO-8.jpg","BJWNWC7ZO-9.jpg","BJWNWC7ZO-10.jpg","BJWNWC7ZO-11.jpg","BJWNWC7ZO-12.jpg","BJWNWC7ZO-13.jpg","BJWNWC7ZO-14.jpg","BJWNWC7ZO-15.jpg"],"district":"Quận Hoàn Kiếm","image":"BJWNWC7ZO-.jpg","lat":21.033607,"long":105.854947,"name":"Bamboo7 - Bít Tết Kiểu Pháp","octime":"  09:00 AM - 10:00 PM","rate":8.2,"type":"Nhà hàng","id":"BJWNWC7ZO-"},"4":{"address":"51 Lý Thường Kiệt","album":["ry7zR7bu-.jpg"],"district":"Quận Hoàn Kiếm","image":"ry7zR7bu-.jpg","lat":21.023742,"long":105.848901,"name":"Hanoi Deli - Coffee & Restaurant","octime":"  07:00 AM - 10:30 PM","rate":8,"type":"Sang trọng, ","id":"ry7zR7bu-"},"5":{"address":"12 Hai Bà Trưng","album":["B1gXGA7-_b.jpg","B1gXGA7-_b1.jpg","B1gXGA7-_b2.jpg","B1gXGA7-_b3.jpg","B1gXGA7-_b4.jpg","B1gXGA7-_b5.jpg","B1gXGA7-_b6.jpg","B1gXGA7-_b7.jpg","B1gXGA7-_b8.jpg","B1gXGA7-_b9.jpg","B1gXGA7-_b10.jpg","B1gXGA7-_b11.jpg","B1gXGA7-_b12.jpg","B1gXGA7-_b13.jpg","B1gXGA7-_b14.jpg","B1gXGA7-_b15.jpg"],"district":"Quận Hoàn Kiếm","image":"B1gXGA7-_b.jpg","lat":21.023858,"long":105.85445,"name":"Hanoi Ocean House - Nhà Hàng Hải Sản","octime":"  09:00 AM - 11:00 PM","rate":9,"type":"Nhà hàng","id":"B1gXGA7-_b"},"6":{"address":"75A Trần Hưng Đạo","album":["H1NzAXbuW.jpg","H1NzAXbuW1.jpg","H1NzAXbuW2.jpg","H1NzAXbuW3.jpg","H1NzAXbuW4.jpg","H1NzAXbuW5.jpg","H1NzAXbuW6.jpg","H1NzAXbuW7.jpg","H1NzAXbuW8.jpg","H1NzAXbuW9.jpg","H1NzAXbuW10.jpg","H1NzAXbuW11.jpg","H1NzAXbuW12.jpg","H1NzAXbuW13.jpg","H1NzAXbuW14.jpg","H1NzAXbuW15.jpg"],"district":"Quận Hoàn Kiếm","image":"H1NzAXbuW.jpg","lat":21.0222567927196,"long":105.847697854042,"name":"Thế Giới Hải Sản - Trần Hưng Đạo","octime":"  09:00 AM - 10:00 PM","rate":7.9,"type":"Nhà hàng, ","id":"H1NzAXbuW"},"7":{"address":"33 Đinh Tiên Hoàng","album":["HkXQ0XWub.jpg"],"district":"Quận Hoàn Kiếm","image":"HkXQ0XWub.jpg","lat":21.03186,"long":105.852574,"name":"Wrap&Roll - Đinh Tiên Hoàng","octime":"  08:00 AM - 10:00 PM","rate":7.3,"type":"Nhà hàng","id":"HkXQ0XWub"},"8":{"address":"36 Hàng Mành","album":["ryxQXCmWO-.jpg","ryxQXCmWO-1.jpg","ryxQXCmWO-2.jpg","ryxQXCmWO-3.jpg","ryxQXCmWO-4.jpg","ryxQXCmWO-5.jpg","ryxQXCmWO-6.jpg"],"district":"Quận Hoàn Kiếm","image":"ryxQXCmWO-.jpg","lat":21.031493,"long":105.848431,"name":"Hanoi Garden Restaurant","octime":"  09:00 AM - 10:30 PM","rate":8,"type":"Nhà hàng","id":"ryxQXCmWO-"},"9":{"address":"48C Phan Bội Châu","album":["BkbmQCQWub.jpg","BkbmQCQWub1.jpg","BkbmQCQWub2.jpg","BkbmQCQWub3.jpg"],"district":"Quận Hoàn Kiếm","image":"BkbmQCQWub.jpg","lat":21.0240969,"long":105.8428312,"name":"Lẩu 63 Biển Vàng","octime":"  10:00 AM - 12:00 AM","rate":8.1,"type":"Nhà hàng","id":"BkbmQCQWub"},"10":{"address":"2 Lý Thường Kiệt","album":["SkfV0mZ_-.jpg","SkfV0mZ_-1.jpg","SkfV0mZ_-2.jpg","SkfV0mZ_-3.jpg","SkfV0mZ_-4.jpg","SkfV0mZ_-5.jpg","SkfV0mZ_-6.jpg","SkfV0mZ_-7.jpg","SkfV0mZ_-8.jpg","SkfV0mZ_-9.jpg"],"district":"Quận Hoàn Kiếm","image":"SkfV0mZ_-.jpg","lat":21.02142,"long":105.857407,"name":"Cheering Beer - Lý Thường Kiệt","octime":"  07:00 AM - 11:30 PM","rate":8.6,"type":"Nhà hàng, ","id":"SkfV0mZ_-"},"11":{"address":"22 Hàng Cân","album":["SygfV0XZ_-.jpg"],"district":"Quận Hoàn Kiếm","image":"SygfV0XZ_-.jpg","lat":21.034714,"long":105.849657,"name":"Quảng An Restaurant - Ẩm Thực Hà Thành","octime":"  11:00 AM - 09:00 PM","rate":10,"type":"Nhà hàng","id":"SygfV0XZ_-"},"12":{"address":"9 Ấu Triệu, P. Hàng Trống","album":["BkWf4AmWdW.jpg","BkWf4AmWdW1.jpg","BkWf4AmWdW2.jpg","BkWf4AmWdW3.jpg","BkWf4AmWdW4.jpg","BkWf4AmWdW5.jpg","BkWf4AmWdW6.jpg","BkWf4AmWdW7.jpg","BkWf4AmWdW8.jpg","BkWf4AmWdW9.jpg","BkWf4AmWdW10.jpg","BkWf4AmWdW11.jpg","BkWf4AmWdW12.jpg","BkWf4AmWdW13.jpg","BkWf4AmWdW14.jpg","BkWf4AmWdW15.jpg"],"district":"Quận Hoàn Kiếm","image":"BkWf4AmWdW.jpg","lat":21.029083,"long":105.84914,"name":"Minh Chay - Vegan Restaurant","octime":"  08:00 AM - 10:00 PM","rate":8.1,"type":"Nhà hàng, ","id":"BkWf4AmWdW"}}