{"0":{"address":"66 Hàng Bạc","album":[],"district":"Quận Hoàn Kiếm","image":"Bkp9GcGOZ.jpg","lat":21.033936,"long":105.85247,"name":"Phục Hình Răng Giả - Hàng Bạc","octime":"  05:00 PM - 07:00 PM","rate":0,"type":"Nha khoa"},"1":{"address":"68 Lê Duẩn","album":[],"district":"Quận Hoàn Kiếm","image":"ryxpcG5Mub.jpg","lat":21.027408,"long":105.841461,"name":"Nha Khoa Minh Huệ","octime":"  08:00 AM - 07:30 PM","rate":0,"type":"Nha khoa"},"2":{"address":"23 Hàm Tử Quan","album":[],"district":"Quận Hoàn Kiếm","image":"B1ZpqG9fd-.jpg","lat":21.031781,"long":105.857497,"name":"Nha Khoa Kim Cương - Hàm Tử Quan","octime":"  08:00 AM - 08:00 PM","rate":0,"type":"Nha khoa"},"3":{"address":"20 Hàn Thuyên","album":[],"district":"Quận Hoàn Kiếm","image":"S1za5GcMOZ.jpg","lat":21.018746,"long":105.856855,"name":"Nha Khoa Hiếu Quyền - Hàn Thuyên","octime":"  08:00 AM - 09:00 PM","rate":0,"type":"Nha khoa"},"4":{"address":"26 Lương Ngọc Quyến","album":[],"district":"Quận Hoàn Kiếm","image":"ByA9Mczdb.jpg","lat":21.034777,"long":105.852443,"name":"Phòng Khám Răng Hàm Mặt - Lương Ngọc Quyến","octime":"  09:00 AM - 09:00 PM","rate":0,"type":"Nha khoa"},"5":{"address":"442 Bạch Đằng","album":[],"district":"Quận Hoàn Kiếm","image":"rkcif5Gub.jpg","lat":21.0212,"long":105.862929,"name":"Nha Khoa Minh Tâm - Bạch Đằng","octime":"  08:00 AM - 09:30 PM","rate":0,"type":"Nha khoa"},"6":{"address":"6B Trần Hưng Đạo","album":[],"district":"Quận Hoàn Kiếm","image":"B1iiM9fOb.jpg","lat":21.0189765,"long":105.8590511,"name":"Nha Khoa Thành Công 108 - Trần Hưng Đạo","octime":"  08:30 AM - 09:30 PM","rate":0,"type":"Nha khoa"},"7":{"address":"2A Phủ Doãn","album":[],"district":"Quận Hoàn Kiếm","image":"HklijGqzub.jpg","lat":21.030291,"long":105.847471,"name":"Nha Khoa Quốc Tế Việt Đức - Phủ Doãn","octime":"  08:00 AM - 07:00 PM","rate":0,"type":"Nha khoa"},"8":{"address":"50C Hàng Bài","album":[],"district":"Quận Hoàn Kiếm","image":"SyWjofcMOb.jpg","lat":21.0201483627055,"long":105.8521288633346,"name":"Nha Khoa Thu Lan - Hàng Bài","octime":"  08:00 AM - 05:00 PM","rate":0,"type":"Nha khoa"},"9":{"address":"8 Vạn Kiếp","album":[],"district":"Quận Hoàn Kiếm","image":"Hyzsjz9M_Z.jpg","lat":21.0186,"long":105.862494,"name":"Nha Khoa Thẩm Mỹ Thủ Đô - Vạn Kiếp","octime":"  07:30 AM - 08:00 PM","rate":0,"type":"Phòng khám, "},"10":{"address":"39 Quang Trung","album":[],"district":"Quận Hoàn Kiếm","image":"BkInzqMuZ.jpg","lat":21.019928,"long":105.847955,"name":"Nha Khoa Hoàn Mỹ - Quang Trung","octime":"  08:30 AM - 09:00 PM","rate":0,"type":"Nha khoa"},"11":{"address":"1B Trần Hưng Đạo","album":[],"district":"Quận Hoàn Kiếm","image":"SJvhz5GOb.jpg","lat":21.0187766309849,"long":105.8595890924334,"name":"Phòng Khám Răng Hàm Mặt, Tai Mũi Họng - Trần Hưng Đạo","octime":"  07:00 AM - 09:00 PM","rate":0,"type":"Phòng khám, "},"12":{"address":"54 Quán Sứ","album":[],"district":"Quận Hoàn Kiếm","image":"BkgPnf5fOb.jpg","lat":21.0271859,"long":105.8457595,"name":"Răng Hàm Mặt Tuấn Vân - Quán Sứ","octime":"  07:00 AM - 09:30 PM","rate":0,"type":"Nha khoa"},"13":{"address":"36 Hàm Long","album":[],"district":"Quận Hoàn Kiếm","image":"Sk_2fcMd-.jpg","lat":21.019459,"long":105.852686,"name":"Nha Khoa Châu Thành - Hàm Long","octime":"  08:00 AM - 08:00 PM","rate":0,"type":"Nha khoa"}}