{"0":{"address":"15 Tạ Hiện","album":["B1UFclOOZ.jpg","B1UFclOOZ1.jpg","B1UFclOOZ2.jpg","B1UFclOOZ3.jpg","B1UFclOOZ4.jpg","B1UFclOOZ5.jpg","B1UFclOOZ6.jpg","B1UFclOOZ7.jpg","B1UFclOOZ8.jpg","B1UFclOOZ9.jpg","B1UFclOOZ10.jpg","B1UFclOOZ11.jpg","B1UFclOOZ12.jpg","B1UFclOOZ13.jpg","B1UFclOOZ14.jpg","B1UFclOOZ15.jpg"],"district":"Quận Hoàn Kiếm","image":"B1UFclOOZ.jpg","lat":21.034761,"long":105.852125,"name":"Phô Mai Que SuXu - Tạ Hiện","octime":"   08:00 AM - 10:00 PM","rate":7,"type":"Quán ăn","id":"B1UFclOOZ"},"1":{"address":"42E Lý Thường Kiệt","album":["S1DFce__Z.jpg","S1DFce__Z1.jpg","S1DFce__Z2.jpg","S1DFce__Z3.jpg","S1DFce__Z4.jpg","S1DFce__Z5.jpg","S1DFce__Z6.jpg","S1DFce__Z7.jpg","S1DFce__Z8.jpg","S1DFce__Z9.jpg","S1DFce__Z10.jpg","S1DFce__Z11.jpg","S1DFce__Z12.jpg","S1DFce__Z13.jpg","S1DFce__Z14.jpg","S1DFce__Z15.jpg"],"district":"Quận Hoàn Kiếm","image":"S1DFce__Z.jpg","lat":21.023593,"long":105.849813,"name":"Brohotdog - Hotdog & Drink","octime":"  08:00 - 23:00","rate":6.7,"type":"Ăn vặt/vỉa hè","id":"S1DFce__Z"},"2":{"address":"61 Đinh Tiên Hoàng","album":["BkeDY9l_u-.jpg","BkeDY9l_u-1.jpg","BkeDY9l_u-2.jpg","BkeDY9l_u-3.jpg","BkeDY9l_u-4.jpg","BkeDY9l_u-5.jpg","BkeDY9l_u-6.jpg","BkeDY9l_u-7.jpg","BkeDY9l_u-8.jpg","BkeDY9l_u-9.jpg","BkeDY9l_u-10.jpg","BkeDY9l_u-11.jpg","BkeDY9l_u-12.jpg","BkeDY9l_u-13.jpg","BkeDY9l_u-14.jpg","BkeDY9l_u-15.jpg"],"district":"Quận Hoàn Kiếm","image":"BkeDY9l_u-.jpg","lat":21.030273,"long":105.854141,"name":"Phở Thìn - Đinh Tiên Hoàng","octime":"   06:00 AM - 08:30 PM","rate":6.4,"type":"Quán ăn","id":"BkeDY9l_u-"},"3":{"address":"35B Nguyễn Hữu Huân","album":["rybPYqxdOb.jpg","rybPYqxdOb1.jpg","rybPYqxdOb2.jpg","rybPYqxdOb3.jpg","rybPYqxdOb4.jpg","rybPYqxdOb5.jpg","rybPYqxdOb6.jpg","rybPYqxdOb7.jpg","rybPYqxdOb8.jpg","rybPYqxdOb9.jpg","rybPYqxdOb10.jpg","rybPYqxdOb11.jpg","rybPYqxdOb12.jpg","rybPYqxdOb13.jpg","rybPYqxdOb14.jpg","rybPYqxdOb15.jpg"],"district":"Quận Hoàn Kiếm","image":"rybPYqxdOb.jpg","lat":21.033778,"long":105.854425,"name":"Xôi Yến - Nguyễn Hữu Huân","octime":"   06:00 AM - 01:00 AM","rate":6.7,"type":"Quán ăn","id":"rybPYqxdOb"},"4":{"address":"1 Hàng Mành","album":["rJEq9gOOb.jpg","rJEq9gOOb1.jpg","rJEq9gOOb2.jpg","rJEq9gOOb3.jpg","rJEq9gOOb4.jpg","rJEq9gOOb5.jpg","rJEq9gOOb6.jpg","rJEq9gOOb7.jpg","rJEq9gOOb8.jpg","rJEq9gOOb9.jpg","rJEq9gOOb10.jpg","rJEq9gOOb11.jpg","rJEq9gOOb12.jpg","rJEq9gOOb13.jpg","rJEq9gOOb14.jpg","rJEq9gOOb15.jpg"],"district":"Quận Hoàn Kiếm","image":"rJEq9gOOb.jpg","lat":21.032316,"long":105.848106,"name":"Bún Chả Hàng Mành Đắc Kim","octime":"   10:00 AM - 08:00 PM","rate":6.1,"type":"Quán ăn","id":"rJEq9gOOb"},"5":{"address":"48 Cầu Gỗ","album":["B1l4q5guOb.jpg","B1l4q5guOb1.jpg","B1l4q5guOb2.jpg","B1l4q5guOb3.jpg","B1l4q5guOb4.jpg","B1l4q5guOb5.jpg","B1l4q5guOb6.jpg","B1l4q5guOb7.jpg","B1l4q5guOb8.jpg","B1l4q5guOb9.jpg","B1l4q5guOb10.jpg","B1l4q5guOb11.jpg","B1l4q5guOb12.jpg","B1l4q5guOb13.jpg","B1l4q5guOb14.jpg","B1l4q5guOb15.jpg"],"district":"Quận Hoàn Kiếm","image":"B1l4q5guOb.jpg","lat":21.032194,"long":105.853087,"name":"Bà Đức - Bánh Cuốn Nóng & Bún Thang","octime":"   07:00 AM - 11:00 PM","rate":6.9,"type":"Quán ăn","id":"B1l4q5guOb"},"6":{"address":"49 Bát Đàn","album":["SJZ4q5ludb.jpg","SJZ4q5ludb1.jpg","SJZ4q5ludb2.jpg","SJZ4q5ludb3.jpg","SJZ4q5ludb4.jpg","SJZ4q5ludb5.jpg","SJZ4q5ludb6.jpg","SJZ4q5ludb7.jpg","SJZ4q5ludb8.jpg","SJZ4q5ludb9.jpg","SJZ4q5ludb10.jpg","SJZ4q5ludb11.jpg","SJZ4q5ludb12.jpg","SJZ4q5ludb13.jpg","SJZ4q5ludb14.jpg","SJZ4q5ludb15.jpg"],"district":"Quận Hoàn Kiếm","image":"SJZ4q5ludb.jpg","lat":21.033644,"long":105.84644,"name":"Phở Gia Truyền - Bát Đàn","octime":"Chiều  06:00 PM - 08:30 PM","rate":6.9,"type":"Quán ăn","id":"SJZ4q5ludb"},"7":{"address":"11 Hàng Hòm ","album":["HJ-s9eO_Z.jpg","HJ-s9eO_Z1.jpg"],"district":"Quận Hoàn Kiếm","image":"HJ-s9eO_Z.jpg","lat":21.032076,"long":105.848776,"name":"Bún Thang - Hàng Hòm","octime":"   06:30 AM - 09:30 PM","rate":6.8,"type":"Quán ăn","id":"HJ-s9eO_Z"},"8":{"address":"39 Đường Thành","album":["HyxWscxdO-.jpg","HyxWscxdO-1.jpg","HyxWscxdO-2.jpg","HyxWscxdO-3.jpg","HyxWscxdO-4.jpg","HyxWscxdO-5.jpg","HyxWscxdO-6.jpg","HyxWscxdO-7.jpg","HyxWscxdO-8.jpg","HyxWscxdO-9.jpg","HyxWscxdO-10.jpg","HyxWscxdO-11.jpg","HyxWscxdO-12.jpg","HyxWscxdO-13.jpg","HyxWscxdO-14.jpg","HyxWscxdO-15.jpg"],"district":"Quận Hoàn Kiếm","image":"HyxWscxdO-.jpg","lat":21.032536,"long":105.846475,"name":"Ốc Ghẹ Đường Thành","octime":"   07:00 AM - 10:00 PM","rate":7.3,"type":"Quán ăn","id":"HyxWscxdO-"},"9":{"address":"24A Bà Triệu","album":["Byfj9edu-.jpg","Byfj9edu-1.jpg","Byfj9edu-2.jpg","Byfj9edu-3.jpg","Byfj9edu-4.jpg","Byfj9edu-5.jpg","Byfj9edu-6.jpg","Byfj9edu-7.jpg"],"district":"Quận Hoàn Kiếm","image":"Byfj9edu-.jpg","lat":21.0252499172028,"long":105.8514593169093,"name":"Chè Hà Anh - Bà Triệu","octime":"   03:00 PM - 10:30 PM","rate":7.6,"type":"Quán ăn","id":"Byfj9edu-"},"10":{"address":"43 Hàng Buồm","album":["SyeMjcg__Z.jpg","SyeMjcg__Z1.jpg","SyeMjcg__Z2.jpg","SyeMjcg__Z3.jpg","SyeMjcg__Z4.jpg","SyeMjcg__Z5.jpg","SyeMjcg__Z6.jpg","SyeMjcg__Z7.jpg","SyeMjcg__Z8.jpg","SyeMjcg__Z9.jpg","SyeMjcg__Z10.jpg","SyeMjcg__Z11.jpg","SyeMjcg__Z12.jpg","SyeMjcg__Z13.jpg","SyeMjcg__Z14.jpg","SyeMjcg__Z15.jpg"],"district":"Quận Hoàn Kiếm","image":"SyeMjcg__Z.jpg","lat":21.035981,"long":105.851576,"name":"Cổ Gà Quay 43 Hàng Buồm","octime":"   03:00 PM - 08:00 PM","rate":6.9,"type":"Quán ăn","id":"SyeMjcg__Z"},"11":{"address":"252 Hàng Bông","album":["ByCoqlOOb.jpg","ByCoqlOOb1.jpg","ByCoqlOOb2.jpg","ByCoqlOOb3.jpg","ByCoqlOOb4.jpg","ByCoqlOOb5.jpg","ByCoqlOOb6.jpg","ByCoqlOOb7.jpg","ByCoqlOOb8.jpg","ByCoqlOOb9.jpg","ByCoqlOOb10.jpg","ByCoqlOOb11.jpg","ByCoqlOOb12.jpg","ByCoqlOOb13.jpg","ByCoqlOOb14.jpg","ByCoqlOOb15.jpg"],"district":"Quận Hoàn Kiếm","image":"ByCoqlOOb.jpg","lat":21.029872,"long":105.846292,"name":"Quà Tặng Thiên Sứ","octime":"   03:00 PM - 08:00 PM","rate":7.3,"type":"Quán ăn","id":"ByCoqlOOb"},"12":{"address":"9A Đinh Liệt","album":["BygRj5euu-.jpg","BygRj5euu-1.jpg","BygRj5euu-2.jpg","BygRj5euu-3.jpg","BygRj5euu-4.jpg","BygRj5euu-5.jpg","BygRj5euu-6.jpg","BygRj5euu-7.jpg","BygRj5euu-8.jpg","BygRj5euu-9.jpg","BygRj5euu-10.jpg","BygRj5euu-11.jpg","BygRj5euu-12.jpg","BygRj5euu-13.jpg","BygRj5euu-14.jpg","BygRj5euu-15.jpg"],"district":"Quận Hoàn Kiếm","image":"BygRj5euu-.jpg","lat":21.032646,"long":105.851952,"name":"Mì Vằn Thắn - Đinh Liệt","octime":"   07:00 AM - 10:00 PM","rate":7.4,"type":"Quán ăn","id":"BygRj5euu-"}}