{
  "0": {
    "address": "71 Hàng Bông",
    "album": [
      "Bk-asFZOb.jpg",
      "Bk-asFZOb1.jpg",
      "Bk-asFZOb2.jpg",
      "Bk-asFZOb3.jpg",
      "Bk-asFZOb4.jpg",
      "Bk-asFZOb5.jpg",
      "Bk-asFZOb6.jpg",
      "Bk-asFZOb7.jpg",
      "Bk-asFZOb8.jpg",
      "Bk-asFZOb9.jpg",
      "Bk-asFZOb10.jpg",
      "Bk-asFZOb11.jpg"
    ],
    "district": "Quận Hoàn Kiếm",
    "image": "Bk-asFZOb.jpg",
    "lat": 21.030359,
    "long": 105.847399,
    "name": "Annam Foot & Body Massage",
    "octime": "  06:00 AM - 11:30 PM",
    "rate": 0,
    "type": "Spa/Massage",
    "id": "Bk-asFZOb"
  },
  "1": {
    "address": "32 Lò Sũ",
    "album": [
      "HyGTsY-dZ.jpg",
      "HyGTsY-dZ1.jpg",
      "HyGTsY-dZ2.jpg",
      "HyGTsY-dZ3.jpg",
      "HyGTsY-dZ4.jpg",
      "HyGTsY-dZ5.jpg",
      "HyGTsY-dZ6.jpg",
      "HyGTsY-dZ7.jpg",
      "HyGTsY-dZ8.jpg"
    ],
    "district": "Quận Hoàn Kiếm",
    "image": "HyGTsY-dZ.jpg",
    "lat": 21.031515,
    "long": 105.854902,
    "name": "La Siesta Spa - Lò Sũ",
    "octime": "  09:00 AM - 09:00 PM",
    "rate": 8.4,
    "type": "Spa/Massage",
    "id": "HyGTsY-dZ"
  },
  "2": {
    "address": "20 Ngô Văn Sở",
    "album": [
      "HkQajKbu-.jpg"
    ],
    "district": "Quận Hoàn Kiếm",
    "image": "HkQajKbu-.jpg",
    "lat": 21.021001,
    "long": 105.848551,
    "name": "Hoàng Minh Spa - Ngô Văn Sở",
    "octime": "  08:00 AM - 10:00 PM",
    "rate": 0,
    "type": "Spa/Massage, ",
    "id": "HkQajKbu-"
  },
  "3": {
    "address": "15 Trần Khánh Dư",
    "album": [
      "SkE6sFW_b.jpg",
      "SkE6sFW_b1.jpg",
      "SkE6sFW_b2.jpg",
      "SkE6sFW_b3.jpg",
      "SkE6sFW_b4.jpg",
      "SkE6sFW_b5.jpg",
      "SkE6sFW_b6.jpg",
      "SkE6sFW_b7.jpg",
      "SkE6sFW_b8.jpg",
      "SkE6sFW_b9.jpg"
    ],
    "district": "Quận Hoàn Kiếm",
    "image": "SkE6sFW_b.jpg",
    "lat": 21.022349116048,
    "long": 105.8609493076801,
    "name": "Shambala Sanctuary Wellness Spa - Trần Khánh Dư",
    "octime": "  09:00 AM - 09:00 PM",
    "rate": 9,
    "type": "Spa/Massage",
    "id": "SkE6sFW_b"
  },
  "4": {
    "address": "26 Hàng Mành",
    "album": [
      "H1RastZOZ.jpg"
    ],
    "district": "Quận Hoàn Kiếm",
    "image": "H1RastZOZ.jpg",
    "lat": 21.031923,
    "long": 105.848248,
    "name": "Mido Spa - Hàng Mành",
    "octime": "  09:00 AM - 03:00 PM",
    "rate": 0,
    "type": "Spa/Massage",
    "id": "H1RastZOZ"
  },
  "5": {
    "address": "94 Mã Mây",
    "album": [
      "rkkRoKZdb.jpg"
    ],
    "district": "Quận Hoàn Kiếm",
    "image": "rkkRoKZdb.jpg",
    "lat": 21.0342588,
    "long": 105.8535986,
    "name": "Hanoi La Siesta Hotel and Spa",
    "octime": "  09:00 AM - 09:30 PM",
    "rate": 0,
    "type": "Spa/Massage, ",
    "id": "rkkRoKZdb"
  },
  "6": {
    "address": "151 Hàng Bông",
    "album": [
      "BJFCstbOb.jpg"
    ],
    "district": "Quận Hoàn Kiếm",
    "image": "BJFCstbOb.jpg",
    "lat": 21.0292797745871,
    "long": 105.8453750610351,
    "name": "Blue Diamond Spa - Hàng Bông",
    "octime": "  09:00 AM - 08:00 PM",
    "rate": 7.8,
    "type": "Spa/Massage, ",
    "id": "BJFCstbOb"
  },
  "7": {
    "address": "48B Phan Bội Châu",
    "album": [
      "HJmkht-dW.jpg"
    ],
    "district": "Quận Hoàn Kiếm",
    "image": "HJmkht-dW.jpg",
    "lat": 21.0241433068718,
    "long": 105.8428001403808,
    "name": "Quynie Spa - Phan Bội Châu",
    "octime": "  08:00 AM - 08:00 PM",
    "rate": 0,
    "type": "Spa/Massage, ",
    "id": "HJmkht-dW"
  },
  "8": {
    "address": "15 Bát Đàn",
    "album": [
      "BJ6k3Ybub.jpg"
    ],
    "district": "Quận Hoàn Kiếm",
    "image": "BJ6k3Ybub.jpg",
    "lat": 21.033744,
    "long": 105.847556,
    "name": "Ngọc Hân Spa",
    "octime": "  07:30 AM - 09:30 PM",
    "rate": 0,
    "type": "Spa/Massage",
    "id": "BJ6k3Ybub"
  },
  "9": {
    "address": "40 Cửa Đông",
    "album": [
      "SJux2FWOb.jpg"
    ],
    "district": "Quận Hoàn Kiếm",
    "image": "SJux2FWOb.jpg",
    "lat": 21.0348695074046,
    "long": 105.8451879769563,
    "name": "Thu Lâm Beauty & Spa - Cửa Đông",
    "octime": "  07:30 AM - 10:00 PM",
    "rate": 0,
    "type": "Spa/Massage",
    "id": "SJux2FWOb"
  }
}