{
  "0": {
    "address": "23 Cửa Đông",
    "album": [
      "ByhPLt-uW.jpg"
    ],
    "district": "Quận Hoàn Kiếm",
    "image": "ByhPLt-uW.jpg",
    "lat": 21.0346592155757,
    "long": 105.8454287052154,
    "name": "Thẩm Mỹ Viện Thanh Bình - Cửa Đông",
    "octime": "  09:00 AM - 09:00 PM",
    "rate": 0,
    "type": "Thẩm mỹ viện",
    "id": "ByhPLt-uW"
  },
  "1": {
    "address": "46 Quán Sứ",
    "album": [
      "Bkg3w8YbOZ.jpg"
    ],
    "district": "Quận Hoàn Kiếm",
    "image": "Bkg3w8YbOZ.jpg",
    "lat": 21.0282908626179,
    "long": 105.8461347967386,
    "name": "Thẩm Mỹ Viện Diamond - Quán Sứ",
    "octime": "  09:00 AM - 08:00 PM",
    "rate": 0,
    "type": "Thẩm mỹ viện",
    "id": "Bkg3w8YbOZ"
  },
  "2": {
    "address": "42E Lý Thường Kiệt",
    "album": [
      "SkZ3wLF-dZ.jpg",
      "SkZ3wLF-dZ1.jpg",
      "SkZ3wLF-dZ2.jpg",
      "SkZ3wLF-dZ3.jpg",
      "SkZ3wLF-dZ4.jpg",
      "SkZ3wLF-dZ5.jpg",
      "SkZ3wLF-dZ6.jpg",
      "SkZ3wLF-dZ7.jpg",
      "SkZ3wLF-dZ8.jpg",
      "SkZ3wLF-dZ9.jpg",
      "SkZ3wLF-dZ10.jpg",
      "SkZ3wLF-dZ11.jpg",
      "SkZ3wLF-dZ12.jpg",
      "SkZ3wLF-dZ13.jpg",
      "SkZ3wLF-dZ14.jpg",
      "SkZ3wLF-dZ15.jpg"
    ],
    "district": "Quận Hoàn Kiếm",
    "image": "SkZ3wLF-dZ.jpg",
    "lat": 21.023593,
    "long": 105.849813,
    "name": "Brohotdog - Hotdog & Drink",
    "octime": "  08:00 - 23:00",
    "rate": 6.6,
    "type": "Ăn vặt/vỉa hè",
    "id": "SkZ3wLF-dZ"
  },
  "3": {
    "address": "159 Bạch Đằng",
    "album": [
      "B1Du8Fbub.jpg"
    ],
    "district": "Quận Hoàn Kiếm",
    "image": "B1Du8Fbub.jpg",
    "lat": 21.029704,
    "long": 105.860088,
    "name": "Hoàn Mỹ - Phun Xăm Thẩm Mỹ",
    "octime": "  09:00 AM - 09:00 PM",
    "rate": 0,
    "type": "Thẩm mỹ viện",
    "id": "B1Du8Fbub"
  },
  "4": {
    "address": "32 Phố Huế, P. Hàng Bài",
    "album": [
      "rJOdLKbuZ.jpg"
    ],
    "district": "Quận Hoàn Kiếm",
    "image": "rJOdLKbuZ.jpg",
    "lat": 21.018833,
    "long": 105.851741,
    "name": "Viện Thẩm Mỹ Hera",
    "octime": "  08:30 PM - 06:00 PM",
    "rate": 0,
    "type": "Thẩm mỹ viện",
    "id": "rJOdLKbuZ"
  },
  "5": {
    "address": "16D Đường Thành",
    "album": [
      "HkFdLY-_W.jpg"
    ],
    "district": "Quận Hoàn Kiếm",
    "image": "HkFdLY-_W.jpg",
    "lat": 21.032533,
    "long": 105.846423,
    "name": "Thẩm Mỹ Hoa Kỳ",
    "octime": "  09:00 AM - 09:00 PM",
    "rate": 0,
    "type": "Thẩm mỹ viện",
    "id": "HkFdLY-_W"
  },
  "6": {
    "address": "33 Cầu Đất",
    "album": [
      "rkzKIKbO-.jpg"
    ],
    "district": "Quận Hoàn Kiếm",
    "image": "rkzKIKbO-.jpg",
    "lat": 21.024993,
    "long": 105.860946,
    "name": "Ngân Hà - Phun Thêu Thẩm Mỹ",
    "octime": "  08:00 AM - 09:00 PM",
    "rate": 0,
    "type": "Thẩm mỹ viện",
    "id": "rkzKIKbO-"
  },
  "7": {
    "address": "15D Hàng Cót",
    "album": [
      "BJeMKIF-_-.jpg"
    ],
    "district": "Quận Hoàn Kiếm",
    "image": "BJeMKIF-_-.jpg",
    "lat": 21.038606,
    "long": 105.847202,
    "name": "Thẩm Mỹ Trung Hoa - Hàng Cót",
    "octime": "  08:00 AM - 09:00 PM",
    "rate": 0,
    "type": "Thẩm mỹ viện",
    "id": "BJeMKIF-_-"
  },
  "8": {
    "address": "8A Hàm Long",
    "album": [
      "HyNKLtW_-.jpg"
    ],
    "district": "Quận Hoàn Kiếm",
    "image": "HyNKLtW_-.jpg",
    "lat": 21.018633,
    "long": 105.854528,
    "name": "Thẩm Mỹ Viện Hàn Việt",
    "octime": "  09:00 AM - 09:00 PM",
    "rate": 0,
    "type": "Thẩm mỹ viện",
    "id": "HyNKLtW_-"
  },
  "9": {
    "address": "5B Phố Huế",
    "album": [
      "Hy6Y8K-uZ.jpg"
    ],
    "district": "Quận Hoàn Kiếm",
    "image": "Hy6Y8K-uZ.jpg",
    "lat": 21.0193089883256,
    "long": 105.8519350737333,
    "name": "Jasmine Noir Beauty",
    "octime": "  09:00 AM - 10:00 PM",
    "rate": 0,
    "type": "Thẩm mỹ viện",
    "id": "Hy6Y8K-uZ"
  },
  "10": {
    "address": "12A3 Lý Nam Đế",
    "album": [
      "rJeaFIKbd-.jpg"
    ],
    "district": "Quận Hoàn Kiếm",
    "image": "rJeaFIKbd-.jpg",
    "lat": 21.0379953728209,
    "long": 105.845557115972,
    "name": "Thẩm Mỹ Viện Dr. Sơn",
    "octime": "  07:30 AM - 10:00 PM",
    "rate": 0,
    "type": "Thẩm mỹ viện",
    "id": "rJeaFIKbd-"
  },
  "11": {
    "address": "12C Đinh Công Tráng",
    "album": [
      "Hk0tIY-_-.jpg"
    ],
    "district": "Quận Hoàn Kiếm",
    "image": "Hk0tIY-_-.jpg",
    "lat": 21.0192391967307,
    "long": 105.859944820404,
    "name": "Thẩm Mỹ Viện Tamy",
    "octime": "  07:30 AM - 10:00 PM",
    "rate": 0,
    "type": "Thẩm mỹ viện",
    "id": "Hk0tIY-_-"
  },
  "12": {
    "address": "2 Hội Vũ",
    "album": [
      "Byv5IFb_W.jpg"
    ],
    "district": "Quận Hoàn Kiếm",
    "image": "Byv5IFb_W.jpg",
    "lat": 21.0291689917372,
    "long": 105.8462776243686,
    "name": "Thẩm Mỹ Minh Phương",
    "octime": "  08:00 AM - 10:00 PM",
    "rate": 0,
    "type": "Thẩm mỹ viện",
    "id": "Byv5IFb_W"
  }
}