{"0":{"address":"1 Phúc Tân","album":[],"district":"Quận Hoàn Kiếm","image":"ryEgvqZuZ.jpg","lat":21.03936066917,"long":105.8531990647316,"name":"CLB Thể Hình Hoàn Kiếm - Phúc Tân","octime":"  06:00 AM - 08:00 PM","rate":0,"type":"Thể dục thể thao"},"1":{"address":"2 Phúc Tân","album":[],"district":"Quận Hoàn Kiếm","image":"ryBlvc-Ob.jpg","lat":21.0391804,"long":105.8531052,"name":"Bể Bơi Olympia Long Biên - Phúc Tân","octime":"  06:00 AM - 09:00 PM","rate":0,"type":"Thể dục thể thao"},"2":{"address":"Tầng 3, Mövenpick Hotel Hanoi, 83A Lý Thường Kiệt","album":[],"district":"Quận Hoàn Kiếm","image":"HklSeD9Z_Z.jpg","lat":21.025371,"long":105.843433,"name":"Kinetic Gym & Wellness Studio - Mövenpick Hotel Hanoi","octime":"  10:30 AM - 10:30 PM","rate":0,"type":"Thể dục thể thao"},"3":{"address":"Tầng 3, De L'Opera Hanoi Hotel, 29 Tràng Tiền","album":[],"district":"Quận Hoàn Kiếm","image":"S1-rlDqbdZ.jpg","lat":21.024677,"long":105.855824,"name":"Swimming Pool - De l'Opera Hanoi Hotel","octime":"  06:00 AM - 10:00 PM","rate":0,"type":"Thể dục thể thao"},"4":{"address":"1 Phúc Tân","album":[],"district":"Quận Hoàn Kiếm","image":"HyfSgD5WuW.jpg","lat":21.039651062929,"long":105.8529683947563,"name":"Sân Bóng Đá Long Biên - Phúc Tân","octime":"  06:00 AM - 11:00 PM","rate":0,"type":"Thể dục thể thao"},"5":{"address":"2 Phúc Tân","album":[],"district":"Quận Hoàn Kiếm","image":"rJyWP9-Ob.jpg","lat":21.039288,"long":105.853079,"name":"Trung Tâm Thể Dục Thể Thao - Phúc Tân","octime":"  06:00 AM - 08:00 PM","rate":0,"type":"Thể dục thể thao"},"6":{"address":"Tầng 2, Capital Building, 41 Hai Bà Trưng","album":[],"district":"Quận Hoàn Kiếm","image":"Bkg-v9ZOb.jpg","lat":21.025496,"long":105.848287,"name":"California Fitness & Yoga - Hai Bà Trưng","octime":"  06:00 AM - 09:30 PM","rate":8,"type":"Thể dục thể thao"},"7":{"address":"33 Phạm Ngũ Lão","album":[],"district":"Quận Hoàn Kiếm","image":"HygxWDcWuZ.jpg","lat":21.0215304095547,"long":105.8599287271499,"name":"Sân Tennis - Phạm Ngũ Lão","octime":"  06:00 AM - 10:00 PM","rate":0,"type":"Thể dục thể thao"},"8":{"address":"4 Trần Hưng Đạo","album":[],"district":"Quận Hoàn Kiếm","image":"HJZl-Pcbu-.jpg","lat":21.01895,"long":105.8594009999999,"name":"Bể Bơi Bốn Mùa - Trần Hưng Đạo","octime":"  05:00 AM - 09:00 PM","rate":0,"type":"Thể dục thể thao"},"9":{"address":"Ngõ 144 Hàm Tử Quan","album":[],"district":"Quận Hoàn Kiếm","image":"H1zgbwqbOZ.jpg","lat":21.0312744776869,"long":105.858673453331,"name":"Sân Tennis Bạch Đằng - Hàm Tử Quan","octime":"  06:00 AM - 10:00 PM","rate":0,"type":"Thể dục thể thao"},"10":{"address":"33C Phạm Ngũ Lão","album":[],"district":"Quận Hoàn Kiếm","image":"HyO-vqbu-.jpg","lat":21.021463,"long":105.8600569999999,"name":"Bể Bơi - Phạm Ngũ Lão","octime":"  06:00 AM - 10:00 PM","rate":0,"type":"Thể dục thể thao"}}