{"0":{"address":"2 Chương Dương Độ","album":[],"district":"Quận Hoàn Kiếm","image":"rkvhEYGuZ.jpg","lat":21.029347,"long":105.858097,"name":"Fit24 Fitness & Yoga Center","octime":"  06:00 AM - 10:00 PM","rate":0,"type":"Thể dục thẩm mỹ"},"1":{"address":"Thiên Sơn Plaza, 2 Chương Dương Độ","album":[],"district":"Quận Hoàn Kiếm","image":"B1O2VKzuW.jpg","lat":21.029213,"long":105.858151,"name":"Fit24 - Fitness &Yoga Center - Chương Dương Độ","octime":"  06:00 AM - 10:00 PM","rate":0,"type":"Thể dục thẩm mỹ"},"2":{"address":"Trung Tâm TM Hàng Da","album":[],"district":"Quận Hoàn Kiếm","image":"H1YhVtG_b.jpg","lat":21.031428,"long":105.84629,"name":"Fusion Bodywords - TTTM Hàng Da","octime":"  06:00 AM - 10:00 PM","rate":0,"type":"Thể dục thẩm mỹ"},"3":{"address":"Tầng 3, De L'Opera Hanoi Hotel, 29 Tràng Tiền","album":[],"district":"Quận Hoàn Kiếm","image":"rk9hNFMdZ.jpg","lat":21.024677,"long":105.855824,"name":"Fitness Centre - De l'Opera Hanoi Hotel","octime":"  00:00 - 23:59","rate":0,"type":"Thể dục thẩm mỹ"},"4":{"address":"Tầng 7, 19 Hàng Bài","album":[],"district":"Quận Hoàn Kiếm","image":"S1g9hVFMOZ.jpg","lat":21.023919,"long":105.852907,"name":"X Fitness - Hàng Bài","octime":"  06:00 AM - 09:00 PM","rate":0,"type":"Thể dục thẩm mỹ"},"5":{"address":"Tầng 8, Tòa Nhà Hồng Hà, 25 Lý Thường Kiệt","album":[],"district":"Quận Hoàn Kiếm","image":"Hk-64tGu-.jpg","lat":21.023769,"long":105.849176,"name":"Elite Fitness - Lý Thường Kiệt","octime":"  06:00 AM - 10:00 PM","rate":0,"type":"Thể dục thẩm mỹ"},"6":{"address":"4A Trần Hưng Đạo","album":[],"district":"Quận Hoàn Kiếm","image":"rJETNtf_W.jpg","lat":21.01895,"long":105.8594009999999,"name":"CLB Thể Hình & Thẩm Mỹ Olympia - Trần Hưng Đạo","octime":"  06:00 AM - 08:00 PM","rate":0,"type":"Thể dục thẩm mỹ"},"7":{"address":"88 Hàng Buồm","album":[],"district":"Quận Hoàn Kiếm","image":"rJLTVFMO-.jpg","lat":21.035545,"long":105.8507919999999,"name":"Phòng Tập Thành Công - Hàng Buồm","octime":"  06:00 AM - 08:00 PM","rate":0,"type":"Thể dục thẩm mỹ"},"8":{"address":"88 Trần Nhật Duật","album":[],"district":"Quận Hoàn Kiếm","image":"H1_pEYz_Z.jpg","lat":21.0365117762391,"long":105.8534686267376,"name":"CLB Thể Hình Thẩm Mỹ X-men - Trần Nhật Duật","octime":"  06:00 AM - 08:00 PM","rate":0,"type":"Thể dục thẩm mỹ"},"9":{"address":"14 - 16 Hàm Long","album":[],"district":"Quận Hoàn Kiếm","image":"rJe_pNFfub.jpg","lat":21.018839,"long":105.8541258999999,"name":"CLB Nshape Fitness - Hàm Long","octime":"  07:00 AM - 09:00 PM","rate":0,"type":"Thể dục thẩm mỹ"},"10":{"address":"TT Văn Hóa Thể Thao & Du Lịch, 65 Quán Sứ","album":[],"district":"Quận Hoàn Kiếm","image":"HJnaVtGuZ.jpg","lat":21.0239902710296,"long":105.8449395373463,"name":"CLB Khiêu Vũ Chí Anh","octime":"  02:00 PM - 09:00 PM","rate":0,"type":"Thể dục thẩm mỹ"},"11":{"address":"Tầng 3 Nhà A TT Văn Hóa Thể Thao Du Lịch, 65 Quán Sứ","album":[],"district":"Quận Hoàn Kiếm","image":"SJa6EtfdW.jpg","lat":21.0239439534022,"long":105.8449449017643,"name":"CLB Namakar Yoga","octime":"  06:00 AM - 09:00 PM","rate":0,"type":"Thể dục thẩm mỹ"},"12":{"address":"Tầng 3 Nhà A TT Văn Hóa Thể Thao Du Lịch, 65 Quán Sứ","album":[],"district":"Quận Hoàn Kiếm","image":"H1Cp4KMOW.jpg","lat":21.0239439534022,"long":105.8449449017643,"name":"CLB Namakar Yoga","octime":"  06:00 AM - 09:00 PM","rate":0,"type":"Thể dục thẩm mỹ"}}